[
	{
		"name" : "Southern Nations, Nationalities, and Peoples' Region",
		"country_code" : "ET",
		"county_code" : "",
		"fips_code" : "54",
		"iso2" : "SN",
		"type" : null,
		"latitude" : 6.51569110,
		"longitude" : 36.95410700
	},
	{
		"name" : "Somali Region",
		"country_code" : "ET",
		"county_code" : "",
		"fips_code" : "52",
		"iso2" : "SO",
		"type" : null,
		"latitude" : 6.66122930,
		"longitude" : 43.79084530
	},
	{
		"name" : "Amhara Region",
		"country_code" : "ET",
		"county_code" : "",
		"fips_code" : "46",
		"iso2" : "AM",
		"type" : null,
		"latitude" : 11.34942470,
		"longitude" : 37.97845850
	},
	{
		"name" : "Tigray Region",
		"country_code" : "ET",
		"county_code" : "",
		"fips_code" : "53",
		"iso2" : "TI",
		"type" : null,
		"latitude" : 14.03233360,
		"longitude" : 38.31657250
	},
	{
		"name" : "Oromia Region",
		"country_code" : "ET",
		"county_code" : "",
		"fips_code" : "51",
		"iso2" : "OR",
		"type" : null,
		"latitude" : 7.54603770,
		"longitude" : 40.63468510
	},
	{
		"name" : "Afar Region",
		"country_code" : "ET",
		"county_code" : "",
		"fips_code" : "45",
		"iso2" : "AF",
		"type" : null,
		"latitude" : 11.75593880,
		"longitude" : 40.95868800
	},
	{
		"name" : "Harari Region",
		"country_code" : "ET",
		"county_code" : "",
		"fips_code" : "50",
		"iso2" : "HA",
		"type" : null,
		"latitude" : 9.31486600,
		"longitude" : 42.19677160
	},
	{
		"name" : "Dire Dawa",
		"country_code" : "ET",
		"county_code" : "",
		"fips_code" : "48",
		"iso2" : "DD",
		"type" : null,
		"latitude" : 9.60087470,
		"longitude" : 41.85014200
	},
	{
		"name" : "Benishangul-Gumuz Region",
		"country_code" : "ET",
		"county_code" : "",
		"fips_code" : "47",
		"iso2" : "BE",
		"type" : null,
		"latitude" : 10.78028890,
		"longitude" : 35.56578620
	},
	{
		"name" : "Gambela Region",
		"country_code" : "ET",
		"county_code" : "",
		"fips_code" : "49",
		"iso2" : "GA",
		"type" : null,
		"latitude" : 7.92196870,
		"longitude" : 34.15319470
	},
	{
		"name" : "Addis Ababa",
		"country_code" : "ET",
		"county_code" : "",
		"fips_code" : "44",
		"iso2" : "AA",
		"type" : null,
		"latitude" : 8.98060340,
		"longitude" : 38.75776050
	},
	{
		"name" : "Petnjica Municipality",
		"country_code" : "ME",
		"county_code" : "",
		"fips_code" : "23",
		"iso2" : "23",
		"type" : null,
		"latitude" : 42.93534800,
		"longitude" : 20.02114490
	},
	{
		"name" : "Bar Municipality",
		"country_code" : "ME",
		"county_code" : "",
		"fips_code" : "02",
		"iso2" : "02",
		"type" : null,
		"latitude" : 42.12781190,
		"longitude" : 19.14043800
	},
	{
		"name" : "Danilovgrad Municipality",
		"country_code" : "ME",
		"county_code" : "",
		"fips_code" : "07",
		"iso2" : "07",
		"type" : null,
		"latitude" : 42.58357000,
		"longitude" : 19.14043800
	},
	{
		"name" : "Rožaje Municipality",
		"country_code" : "ME",
		"county_code" : "",
		"fips_code" : "17",
		"iso2" : "17",
		"type" : null,
		"latitude" : 42.84083890,
		"longitude" : 20.16706280
	},
	{
		"name" : "Plužine Municipality",
		"country_code" : "ME",
		"county_code" : "",
		"fips_code" : "15",
		"iso2" : "15",
		"type" : null,
		"latitude" : 43.15933840,
		"longitude" : 18.85514840
	},
	{
		"name" : "Nikšić Municipality",
		"country_code" : "ME",
		"county_code" : "",
		"fips_code" : "12",
		"iso2" : "12",
		"type" : null,
		"latitude" : 42.79971840,
		"longitude" : 18.76009630
	},
	{
		"name" : "Šavnik Municipality",
		"country_code" : "ME",
		"county_code" : "",
		"fips_code" : "18",
		"iso2" : "18",
		"type" : null,
		"latitude" : 42.96037560,
		"longitude" : 19.14043800
	},
	{
		"name" : "Plav Municipality",
		"country_code" : "ME",
		"county_code" : "",
		"fips_code" : "13",
		"iso2" : "13",
		"type" : null,
		"latitude" : 42.60013370,
		"longitude" : 19.94075410
	},
	{
		"name" : "Pljevlja Municipality",
		"country_code" : "ME",
		"county_code" : "",
		"fips_code" : "14",
		"iso2" : "14",
		"type" : null,
		"latitude" : 43.27233830,
		"longitude" : 19.28315310
	},
	{
		"name" : "Berane Municipality",
		"country_code" : "ME",
		"county_code" : "",
		"fips_code" : "03",
		"iso2" : "03",
		"type" : null,
		"latitude" : 42.82572890,
		"longitude" : 19.90205090
	},
	{
		"name" : "Mojkovac Municipality",
		"country_code" : "ME",
		"county_code" : "",
		"fips_code" : "11",
		"iso2" : "11",
		"type" : null,
		"latitude" : 42.96880180,
		"longitude" : 19.52110630
	},
	{
		"name" : "Andrijevica Municipality",
		"country_code" : "ME",
		"county_code" : "",
		"fips_code" : "01",
		"iso2" : "01",
		"type" : null,
		"latitude" : 42.73624770,
		"longitude" : 19.78595560
	},
	{
		"name" : "Gusinje Municipality",
		"country_code" : "ME",
		"county_code" : "",
		"fips_code" : "22",
		"iso2" : "22",
		"type" : null,
		"latitude" : 42.55634550,
		"longitude" : 19.83060510
	},
	{
		"name" : "Bijelo Polje Municipality",
		"country_code" : "ME",
		"county_code" : "",
		"fips_code" : "04",
		"iso2" : "04",
		"type" : null,
		"latitude" : 43.08465260,
		"longitude" : 19.71154720
	},
	{
		"name" : "Kotor Municipality",
		"country_code" : "ME",
		"county_code" : "",
		"fips_code" : "10",
		"iso2" : "10",
		"type" : null,
		"latitude" : 42.57402610,
		"longitude" : 18.64131450
	},
	{
		"name" : "Podgorica Municipality",
		"country_code" : "ME",
		"county_code" : "",
		"fips_code" : "16",
		"iso2" : "16",
		"type" : null,
		"latitude" : 42.36938340,
		"longitude" : 19.28315310
	},
	{
		"name" : "Old Royal Capital Cetinje",
		"country_code" : "ME",
		"county_code" : "",
		"fips_code" : "16",
		"iso2" : "06",
		"type" : null,
		"latitude" : 42.39309590,
		"longitude" : 18.91159640
	},
	{
		"name" : "Tivat Municipality",
		"country_code" : "ME",
		"county_code" : "",
		"fips_code" : "19",
		"iso2" : "19",
		"type" : null,
		"latitude" : 42.42348000,
		"longitude" : 18.71851840
	},
	{
		"name" : "Budva Municipality",
		"country_code" : "ME",
		"county_code" : "",
		"fips_code" : "05",
		"iso2" : "05",
		"type" : null,
		"latitude" : 42.31407200,
		"longitude" : 18.83138320
	},
	{
		"name" : "Kolašin Municipality",
		"country_code" : "ME",
		"county_code" : "",
		"fips_code" : "09",
		"iso2" : "09",
		"type" : null,
		"latitude" : 42.76019160,
		"longitude" : 19.42591140
	},
	{
		"name" : "Žabljak Municipality",
		"country_code" : "ME",
		"county_code" : "",
		"fips_code" : "21",
		"iso2" : "21",
		"type" : null,
		"latitude" : 43.15551520,
		"longitude" : 19.12260180
	},
	{
		"name" : "Ulcinj Municipality",
		"country_code" : "ME",
		"county_code" : "",
		"fips_code" : "20",
		"iso2" : "20",
		"type" : null,
		"latitude" : 41.96527950,
		"longitude" : 19.30694320
	},
	{
		"name" : "Kunene Region",
		"country_code" : "NA",
		"county_code" : "",
		"fips_code" : "32",
		"iso2" : "KU",
		"type" : null,
		"latitude" : -19.40863170,
		"longitude" : 13.91439900
	},
	{
		"name" : "Kavango West Region",
		"country_code" : "NA",
		"county_code" : "",
		"fips_code" : "41",
		"iso2" : "KW",
		"type" : null,
		"latitude" : -18.27104800,
		"longitude" : 18.42760470
	},
	{
		"name" : "Kavango East Region",
		"country_code" : "NA",
		"county_code" : "",
		"fips_code" : "40",
		"iso2" : "KE",
		"type" : null,
		"latitude" : -18.27104800,
		"longitude" : 18.42760470
	},
	{
		"name" : "Oshana Region",
		"country_code" : "NA",
		"county_code" : "",
		"fips_code" : "37",
		"iso2" : "ON",
		"type" : null,
		"latitude" : -18.43050640,
		"longitude" : 15.68817880
	},
	{
		"name" : "Hardap Region",
		"country_code" : "NA",
		"county_code" : "",
		"fips_code" : "30",
		"iso2" : "HA",
		"type" : null,
		"latitude" : -24.23101340,
		"longitude" : 17.66888700
	},
	{
		"name" : "Omusati Region",
		"country_code" : "NA",
		"county_code" : "",
		"fips_code" : "36",
		"iso2" : "OS",
		"type" : null,
		"latitude" : -18.40702940,
		"longitude" : 14.84546190
	},
	{
		"name" : "Ohangwena Region",
		"country_code" : "NA",
		"county_code" : "",
		"fips_code" : "33",
		"iso2" : "OW",
		"type" : null,
		"latitude" : -17.59792910,
		"longitude" : 16.81783770
	},
	{
		"name" : "Omaheke Region",
		"country_code" : "NA",
		"county_code" : "",
		"fips_code" : "35",
		"iso2" : "OH",
		"type" : null,
		"latitude" : -21.84666510,
		"longitude" : 19.18800470
	},
	{
		"name" : "Oshikoto Region",
		"country_code" : "NA",
		"county_code" : "",
		"fips_code" : "38",
		"iso2" : "OT",
		"type" : null,
		"latitude" : -18.41525750,
		"longitude" : 16.91225100
	},
	{
		"name" : "Erongo Region",
		"country_code" : "NA",
		"county_code" : "",
		"fips_code" : "29",
		"iso2" : "ER",
		"type" : null,
		"latitude" : -22.25656820,
		"longitude" : 15.40680790
	},
	{
		"name" : "Khomas Region",
		"country_code" : "NA",
		"county_code" : "",
		"fips_code" : "21",
		"iso2" : "KH",
		"type" : null,
		"latitude" : -22.63778540,
		"longitude" : 17.10119310
	},
	{
		"name" : "Karas Region",
		"country_code" : "NA",
		"county_code" : "",
		"fips_code" : "31",
		"iso2" : "KA",
		"type" : null,
		"latitude" : -26.84296450,
		"longitude" : 17.29028390
	},
	{
		"name" : "Otjozondjupa Region",
		"country_code" : "NA",
		"county_code" : "",
		"fips_code" : "39",
		"iso2" : "OD",
		"type" : null,
		"latitude" : -20.54869160,
		"longitude" : 17.66888700
	},
	{
		"name" : "Zambezi Region",
		"country_code" : "NA",
		"county_code" : "",
		"fips_code" : "28",
		"iso2" : "CA",
		"type" : null,
		"latitude" : -17.81934190,
		"longitude" : 23.95364660
	},
	{
		"name" : "Ashanti",
		"country_code" : "GH",
		"county_code" : "",
		"fips_code" : "02",
		"iso2" : "AH",
		"type" : "region",
		"latitude" : 6.74704360,
		"longitude" : -1.52086240
	},
	{
		"name" : "Western",
		"country_code" : "GH",
		"county_code" : "",
		"fips_code" : "09",
		"iso2" : "WP",
		"type" : "region",
		"latitude" : 5.50000000,
		"longitude" : -2.50000000
	},
	{
		"name" : "Eastern",
		"country_code" : "GH",
		"county_code" : "",
		"fips_code" : "05",
		"iso2" : "EP",
		"type" : "region",
		"latitude" : 6.50000000,
		"longitude" : -0.50000000
	},
	{
		"name" : "Northern",
		"country_code" : "GH",
		"county_code" : "",
		"fips_code" : "06",
		"iso2" : "NP",
		"type" : "region",
		"latitude" : 9.50000000,
		"longitude" : -1.00000000
	},
	{
		"name" : "Central",
		"country_code" : "GH",
		"county_code" : "",
		"fips_code" : "04",
		"iso2" : "CP",
		"type" : "region",
		"latitude" : 5.50000000,
		"longitude" : -1.00000000
	},
	{
		"name" : "Ahafo",
		"country_code" : "GH",
		"county_code" : "",
		"fips_code" : "03",
		"iso2" : "AF",
		"type" : "region",
		"latitude" : 7.58213720,
		"longitude" : -2.54974630
	},
	{
		"name" : "Greater Accra",
		"country_code" : "GH",
		"county_code" : "",
		"fips_code" : "01",
		"iso2" : "AA",
		"type" : "region",
		"latitude" : 5.81428360,
		"longitude" : 0.07467670
	},
	{
		"name" : "Upper East",
		"country_code" : "GH",
		"county_code" : "",
		"fips_code" : "10",
		"iso2" : "UE",
		"type" : "region",
		"latitude" : 10.70824990,
		"longitude" : -0.98206680
	},
	{
		"name" : "Volta",
		"country_code" : "GH",
		"county_code" : "",
		"fips_code" : "08",
		"iso2" : "TV",
		"type" : "region",
		"latitude" : 6.57813730,
		"longitude" : 0.45023680
	},
	{
		"name" : "Upper West",
		"country_code" : "GH",
		"county_code" : "",
		"fips_code" : "11",
		"iso2" : "UW",
		"type" : "region",
		"latitude" : 10.25297570,
		"longitude" : -2.14502450
	},
	{
		"name" : "San Marino",
		"country_code" : "SM",
		"county_code" : "",
		"fips_code" : "07",
		"iso2" : "07",
		"type" : null,
		"latitude" : 43.94236000,
		"longitude" : 12.45777700
	},
	{
		"name" : "Acquaviva",
		"country_code" : "SM",
		"county_code" : "",
		"fips_code" : "01",
		"iso2" : "01",
		"type" : null,
		"latitude" : 41.86715970,
		"longitude" : 14.74694790
	},
	{
		"name" : "Chiesanuova",
		"country_code" : "SM",
		"county_code" : "",
		"fips_code" : "02",
		"iso2" : "02",
		"type" : null,
		"latitude" : 45.42261720,
		"longitude" : 7.65038540
	},
	{
		"name" : "Borgo Maggiore",
		"country_code" : "SM",
		"county_code" : "",
		"fips_code" : "06",
		"iso2" : "06",
		"type" : null,
		"latitude" : 43.95748820,
		"longitude" : 12.45525460
	},
	{
		"name" : "Faetano",
		"country_code" : "SM",
		"county_code" : "",
		"fips_code" : "04",
		"iso2" : "04",
		"type" : null,
		"latitude" : 43.93489670,
		"longitude" : 12.48965540
	},
	{
		"name" : "Montegiardino",
		"country_code" : "SM",
		"county_code" : "",
		"fips_code" : "08",
		"iso2" : "08",
		"type" : null,
		"latitude" : 43.90529990,
		"longitude" : 12.48105420
	},
	{
		"name" : "Domagnano",
		"country_code" : "SM",
		"county_code" : "",
		"fips_code" : "03",
		"iso2" : "03",
		"type" : null,
		"latitude" : 43.95019290,
		"longitude" : 12.46815370
	},
	{
		"name" : "Serravalle",
		"country_code" : "SM",
		"county_code" : "",
		"fips_code" : "09",
		"iso2" : "09",
		"type" : null,
		"latitude" : 44.72320840,
		"longitude" : 8.85740050
	},
	{
		"name" : "Fiorentino",
		"country_code" : "SM",
		"county_code" : "",
		"fips_code" : "05",
		"iso2" : "05",
		"type" : null,
		"latitude" : 43.90783370,
		"longitude" : 12.45812090
	},
	{
		"name" : "Tillabéri Region",
		"country_code" : "NE",
		"county_code" : "",
		"fips_code" : "09",
		"iso2" : "6",
		"type" : null,
		"latitude" : 14.64895250,
		"longitude" : 2.14502450
	},
	{
		"name" : "Dosso Region",
		"country_code" : "NE",
		"county_code" : "",
		"fips_code" : "03",
		"iso2" : "3",
		"type" : null,
		"latitude" : 13.15139470,
		"longitude" : 3.41955270
	},
	{
		"name" : "Zinder Region",
		"country_code" : "NE",
		"county_code" : "",
		"fips_code" : "07",
		"iso2" : "7",
		"type" : null,
		"latitude" : 15.17188810,
		"longitude" : 10.26001250
	},
	{
		"name" : "Maradi Region",
		"country_code" : "NE",
		"county_code" : "",
		"fips_code" : "04",
		"iso2" : "4",
		"type" : null,
		"latitude" : 13.80180740,
		"longitude" : 7.43813550
	},
	{
		"name" : "Agadez Region",
		"country_code" : "NE",
		"county_code" : "",
		"fips_code" : "01",
		"iso2" : "1",
		"type" : null,
		"latitude" : 20.66707520,
		"longitude" : 12.07182810
	},
	{
		"name" : "Diffa Region",
		"country_code" : "NE",
		"county_code" : "",
		"fips_code" : "02",
		"iso2" : "2",
		"type" : null,
		"latitude" : 13.67686470,
		"longitude" : 12.71351210
	},
	{
		"name" : "Tahoua Region",
		"country_code" : "NE",
		"county_code" : "",
		"fips_code" : "06",
		"iso2" : "5",
		"type" : null,
		"latitude" : 16.09025430,
		"longitude" : 5.39395510
	},
	{
		"name" : "Mqabba",
		"country_code" : "MT",
		"county_code" : "",
		"fips_code" : "06",
		"iso2" : "33",
		"type" : null,
		"latitude" : 35.84441430,
		"longitude" : 14.46941860
	},
	{
		"name" : "San Ġwann",
		"country_code" : "MT",
		"county_code" : "",
		"fips_code" : "54",
		"iso2" : "49",
		"type" : null,
		"latitude" : 35.90773650,
		"longitude" : 14.47524160
	},
	{
		"name" : "Żurrieq",
		"country_code" : "MT",
		"county_code" : "",
		"fips_code" : "54",
		"iso2" : "68",
		"type" : null,
		"latitude" : 35.82163060,
		"longitude" : 14.48106480
	},
	{
		"name" : "Luqa",
		"country_code" : "MT",
		"county_code" : "",
		"fips_code" : "30",
		"iso2" : "25",
		"type" : null,
		"latitude" : 35.85828650,
		"longitude" : 14.48688830
	},
	{
		"name" : "Marsaxlokk",
		"country_code" : "MT",
		"county_code" : "",
		"fips_code" : "33",
		"iso2" : "28",
		"type" : null,
		"latitude" : 35.84116990,
		"longitude" : 14.53930970
	},
	{
		"name" : "Qala",
		"country_code" : "MT",
		"county_code" : "",
		"fips_code" : "33",
		"iso2" : "42",
		"type" : null,
		"latitude" : 36.03886280,
		"longitude" : 14.31810100
	},
	{
		"name" : "Żebbuġ Malta",
		"country_code" : "MT",
		"county_code" : "",
		"fips_code" : "33",
		"iso2" : "66",
		"type" : null,
		"latitude" : 35.87646480,
		"longitude" : 14.43908400
	},
	{
		"name" : "Xgħajra",
		"country_code" : "MT",
		"county_code" : "",
		"fips_code" : "33",
		"iso2" : "63",
		"type" : null,
		"latitude" : 35.88682820,
		"longitude" : 14.54723910
	},
	{
		"name" : "Kirkop",
		"country_code" : "MT",
		"county_code" : "",
		"fips_code" : "28",
		"iso2" : "23",
		"type" : null,
		"latitude" : 35.84378620,
		"longitude" : 14.48543240
	},
	{
		"name" : "Rabat",
		"country_code" : "MT",
		"county_code" : "",
		"fips_code" : "28",
		"iso2" : "46",
		"type" : null,
		"latitude" : 33.97159040,
		"longitude" : -6.84981290
	},
	{
		"name" : "Floriana",
		"country_code" : "MT",
		"county_code" : "",
		"fips_code" : "28",
		"iso2" : "09",
		"type" : null,
		"latitude" : 45.49521850,
		"longitude" : -73.71395760
	},
	{
		"name" : "Żebbuġ Gozo",
		"country_code" : "MT",
		"county_code" : "",
		"fips_code" : "28",
		"iso2" : "65",
		"type" : null,
		"latitude" : 36.07164030,
		"longitude" : 14.24540800
	},
	{
		"name" : "Swieqi",
		"country_code" : "MT",
		"county_code" : "",
		"fips_code" : "28",
		"iso2" : "57",
		"type" : null,
		"latitude" : 35.91911820,
		"longitude" : 14.46941860
	},
	{
		"name" : "Saint Lawrence",
		"country_code" : "MT",
		"county_code" : "",
		"fips_code" : "50",
		"iso2" : "50",
		"type" : null,
		"latitude" : 38.95780560,
		"longitude" : -95.25656890
	},
	{
		"name" : "Birżebbuġa",
		"country_code" : "MT",
		"county_code" : "",
		"fips_code" : "05",
		"iso2" : "05",
		"type" : null,
		"latitude" : 35.81359890,
		"longitude" : 14.52474630
	},
	{
		"name" : "Mdina",
		"country_code" : "MT",
		"county_code" : "",
		"fips_code" : "05",
		"iso2" : "29",
		"type" : null,
		"latitude" : 35.88809300,
		"longitude" : 14.40683570
	},
	{
		"name" : "Santa Venera",
		"country_code" : "MT",
		"county_code" : "",
		"fips_code" : "05",
		"iso2" : "54",
		"type" : null,
		"latitude" : 35.89022010,
		"longitude" : 14.47669740
	},
	{
		"name" : "Kerċem",
		"country_code" : "MT",
		"county_code" : "",
		"fips_code" : "05",
		"iso2" : "22",
		"type" : null,
		"latitude" : 36.04479390,
		"longitude" : 14.22506050
	},
	{
		"name" : "Għarb",
		"country_code" : "MT",
		"county_code" : "",
		"fips_code" : "05",
		"iso2" : "14",
		"type" : null,
		"latitude" : 36.06890900,
		"longitude" : 14.20180980
	},
	{
		"name" : "Iklin",
		"country_code" : "MT",
		"county_code" : "",
		"fips_code" : "05",
		"iso2" : "19",
		"type" : null,
		"latitude" : 35.90987740,
		"longitude" : 14.45777320
	},
	{
		"name" : "Santa Luċija",
		"country_code" : "MT",
		"county_code" : "",
		"fips_code" : "05",
		"iso2" : "53",
		"type" : null,
		"latitude" : 35.85614200,
		"longitude" : 14.50436000
	},
	{
		"name" : "Valletta",
		"country_code" : "MT",
		"county_code" : "",
		"fips_code" : "05",
		"iso2" : "60",
		"type" : null,
		"latitude" : 35.89890850,
		"longitude" : 14.51455280
	},
	{
		"name" : "Msida",
		"country_code" : "MT",
		"county_code" : "",
		"fips_code" : "05",
		"iso2" : "34",
		"type" : null,
		"latitude" : 35.89563880,
		"longitude" : 14.48688830
	},
	{
		"name" : "Birkirkara",
		"country_code" : "MT",
		"county_code" : "",
		"fips_code" : "04",
		"iso2" : "04",
		"type" : null,
		"latitude" : 35.89547060,
		"longitude" : 14.46650720
	},
	{
		"name" : "Siġġiewi",
		"country_code" : "MT",
		"county_code" : "",
		"fips_code" : "04",
		"iso2" : "55",
		"type" : null,
		"latitude" : 35.84637420,
		"longitude" : 14.43157460
	},
	{
		"name" : "Kalkara",
		"country_code" : "MT",
		"county_code" : "",
		"fips_code" : "04",
		"iso2" : "21",
		"type" : null,
		"latitude" : 35.89142420,
		"longitude" : 14.53202780
	},
	{
		"name" : "St. Julian's",
		"country_code" : "MT",
		"county_code" : "",
		"fips_code" : "35",
		"iso2" : "48",
		"type" : null,
		"latitude" : 42.21225130,
		"longitude" : -85.89171270
	},
	{
		"name" : "Victoria",
		"country_code" : "MT",
		"county_code" : "",
		"fips_code" : "46",
		"iso2" : "45",
		"type" : null,
		"latitude" : 28.80526740,
		"longitude" : -97.00359820
	},
	{
		"name" : "Mellieħa",
		"country_code" : "MT",
		"county_code" : "",
		"fips_code" : "46",
		"iso2" : "30",
		"type" : null,
		"latitude" : 35.95235290,
		"longitude" : 14.35009750
	},
	{
		"name" : "Tarxien",
		"country_code" : "MT",
		"county_code" : "",
		"fips_code" : "58",
		"iso2" : "59",
		"type" : null,
		"latitude" : 35.86725520,
		"longitude" : 14.51164050
	},
	{
		"name" : "Sliema",
		"country_code" : "MT",
		"county_code" : "",
		"fips_code" : "58",
		"iso2" : "56",
		"type" : null,
		"latitude" : 35.91100810,
		"longitude" : 14.50290400
	},
	{
		"name" : "Ħamrun",
		"country_code" : "MT",
		"county_code" : "",
		"fips_code" : "58",
		"iso2" : "18",
		"type" : null,
		"latitude" : 35.88612370,
		"longitude" : 14.48834420
	},
	{
		"name" : "Għasri",
		"country_code" : "MT",
		"county_code" : "",
		"fips_code" : "58",
		"iso2" : "16",
		"type" : null,
		"latitude" : 36.06680750,
		"longitude" : 14.21924750
	},
	{
		"name" : "Birgu",
		"country_code" : "MT",
		"county_code" : "",
		"fips_code" : "58",
		"iso2" : "03",
		"type" : null,
		"latitude" : 35.88792140,
		"longitude" : 14.52256200
	},
	{
		"name" : "Balzan",
		"country_code" : "MT",
		"county_code" : "",
		"fips_code" : "02",
		"iso2" : "02",
		"type" : null,
		"latitude" : 35.89574140,
		"longitude" : 14.45340650
	},
	{
		"name" : "Mġarr",
		"country_code" : "MT",
		"county_code" : "",
		"fips_code" : "02",
		"iso2" : "31",
		"type" : null,
		"latitude" : 35.91893270,
		"longitude" : 14.36173430
	},
	{
		"name" : "Attard",
		"country_code" : "MT",
		"county_code" : "",
		"fips_code" : "01",
		"iso2" : "01",
		"type" : null,
		"latitude" : 35.89049670,
		"longitude" : 14.41993220
	},
	{
		"name" : "Qrendi",
		"country_code" : "MT",
		"county_code" : "",
		"fips_code" : "01",
		"iso2" : "44",
		"type" : null,
		"latitude" : 35.83284880,
		"longitude" : 14.45486210
	},
	{
		"name" : "Naxxar",
		"country_code" : "MT",
		"county_code" : "",
		"fips_code" : "01",
		"iso2" : "38",
		"type" : null,
		"latitude" : 35.93175180,
		"longitude" : 14.43157460
	},
	{
		"name" : "Gżira",
		"country_code" : "MT",
		"county_code" : "",
		"fips_code" : "01",
		"iso2" : "12",
		"type" : null,
		"latitude" : 35.90589700,
		"longitude" : 14.49533380
	},
	{
		"name" : "Xagħra",
		"country_code" : "MT",
		"county_code" : "",
		"fips_code" : "01",
		"iso2" : "61",
		"type" : null,
		"latitude" : 36.05084500,
		"longitude" : 14.26748200
	},
	{
		"name" : "Paola",
		"country_code" : "MT",
		"county_code" : "",
		"fips_code" : "39",
		"iso2" : "39",
		"type" : null,
		"latitude" : 38.57223530,
		"longitude" : -94.87912940
	},
	{
		"name" : "Sannat",
		"country_code" : "MT",
		"county_code" : "",
		"fips_code" : "54",
		"iso2" : "52",
		"type" : null,
		"latitude" : 36.01926430,
		"longitude" : 14.25994370
	},
	{
		"name" : "Dingli",
		"country_code" : "MT",
		"county_code" : "",
		"fips_code" : "07",
		"iso2" : "07",
		"type" : null,
		"latitude" : 35.86273090,
		"longitude" : 14.38501070
	},
	{
		"name" : "Gudja",
		"country_code" : "MT",
		"county_code" : "",
		"fips_code" : "07",
		"iso2" : "11",
		"type" : null,
		"latitude" : 35.84698030,
		"longitude" : 14.50290400
	},
	{
		"name" : "Qormi",
		"country_code" : "MT",
		"county_code" : "",
		"fips_code" : "43",
		"iso2" : "43",
		"type" : null,
		"latitude" : 35.87643880,
		"longitude" : 14.46941860
	},
	{
		"name" : "Għargħur",
		"country_code" : "MT",
		"county_code" : "",
		"fips_code" : "43",
		"iso2" : "15",
		"type" : null,
		"latitude" : 35.92205690,
		"longitude" : 14.45631760
	},
	{
		"name" : "Xewkija",
		"country_code" : "MT",
		"county_code" : "",
		"fips_code" : "43",
		"iso2" : "62",
		"type" : null,
		"latitude" : 36.02992360,
		"longitude" : 14.25994370
	},
	{
		"name" : "Ta' Xbiex",
		"country_code" : "MT",
		"county_code" : "",
		"fips_code" : "59",
		"iso2" : "58",
		"type" : null,
		"latitude" : 35.89914480,
		"longitude" : 14.49635190
	},
	{
		"name" : "Żabbar",
		"country_code" : "MT",
		"county_code" : "",
		"fips_code" : "59",
		"iso2" : "64",
		"type" : null,
		"latitude" : 35.87247150,
		"longitude" : 14.54513540
	},
	{
		"name" : "Għaxaq",
		"country_code" : "MT",
		"county_code" : "",
		"fips_code" : "59",
		"iso2" : "17",
		"type" : null,
		"latitude" : 35.84403590,
		"longitude" : 14.51600900
	},
	{
		"name" : "Pembroke",
		"country_code" : "MT",
		"county_code" : "",
		"fips_code" : "40",
		"iso2" : "40",
		"type" : null,
		"latitude" : 34.68016260,
		"longitude" : -79.19503730
	},
	{
		"name" : "Lija",
		"country_code" : "MT",
		"county_code" : "",
		"fips_code" : "29",
		"iso2" : "24",
		"type" : null,
		"latitude" : 49.18007600,
		"longitude" : -123.10331700
	},
	{
		"name" : "Pietà",
		"country_code" : "MT",
		"county_code" : "",
		"fips_code" : "29",
		"iso2" : "41",
		"type" : null,
		"latitude" : 42.21862000,
		"longitude" : -83.73464700
	},
	{
		"name" : "Marsa",
		"country_code" : "MT",
		"county_code" : "",
		"fips_code" : "29",
		"iso2" : "26",
		"type" : null,
		"latitude" : 34.03195870,
		"longitude" : -118.44555350
	},
	{
		"name" : "Fgura",
		"country_code" : "MT",
		"county_code" : "",
		"fips_code" : "29",
		"iso2" : "08",
		"type" : null,
		"latitude" : 35.87382690,
		"longitude" : 14.52329010
	},
	{
		"name" : "Għajnsielem",
		"country_code" : "MT",
		"county_code" : "",
		"fips_code" : "11",
		"iso2" : "13",
		"type" : null,
		"latitude" : 36.02479660,
		"longitude" : 14.28029610
	},
	{
		"name" : "Mtarfa",
		"country_code" : "MT",
		"county_code" : "",
		"fips_code" : "11",
		"iso2" : "35",
		"type" : null,
		"latitude" : 35.88951250,
		"longitude" : 14.39519530
	},
	{
		"name" : "Munxar",
		"country_code" : "MT",
		"county_code" : "",
		"fips_code" : "11",
		"iso2" : "36",
		"type" : null,
		"latitude" : 36.02880580,
		"longitude" : 14.22506050
	},
	{
		"name" : "Nadur",
		"country_code" : "MT",
		"county_code" : "",
		"fips_code" : "11",
		"iso2" : "37",
		"type" : null,
		"latitude" : 36.04470190,
		"longitude" : 14.29192730
	},
	{
		"name" : "Fontana",
		"country_code" : "MT",
		"county_code" : "",
		"fips_code" : "11",
		"iso2" : "10",
		"type" : null,
		"latitude" : 34.09223350,
		"longitude" : -117.43504800
	},
	{
		"name" : "Żejtun",
		"country_code" : "MT",
		"county_code" : "",
		"fips_code" : "11",
		"iso2" : "67",
		"type" : null,
		"latitude" : 35.85487140,
		"longitude" : 14.53639690
	},
	{
		"name" : "Senglea",
		"country_code" : "MT",
		"county_code" : "",
		"fips_code" : "11",
		"iso2" : "20",
		"type" : null,
		"latitude" : 35.88730410,
		"longitude" : 14.51673710
	},
	{
		"name" : "Marsaskala",
		"country_code" : "MT",
		"county_code" : "",
		"fips_code" : "32",
		"iso2" : "27",
		"type" : null,
		"latitude" : 35.86036400,
		"longitude" : 14.55678760
	},
	{
		"name" : "Cospicua",
		"country_code" : "MT",
		"county_code" : "",
		"fips_code" : "32",
		"iso2" : "06",
		"type" : null,
		"latitude" : 35.88067530,
		"longitude" : 14.52183380
	},
	{
		"name" : "St. Paul's Bay",
		"country_code" : "MT",
		"county_code" : "",
		"fips_code" : "35",
		"iso2" : "51",
		"type" : null,
		"latitude" : 35.93601700,
		"longitude" : 14.39665030
	},
	{
		"name" : "Mosta",
		"country_code" : "MT",
		"county_code" : "",
		"fips_code" : "35",
		"iso2" : "32",
		"type" : null,
		"latitude" : 35.91415040,
		"longitude" : 14.42284270
	},
	{
		"name" : "Mangystau Region",
		"country_code" : "KZ",
		"county_code" : "",
		"fips_code" : "09",
		"iso2" : "MAN",
		"type" : null,
		"latitude" : 44.59080200,
		"longitude" : 53.84995080
	},
	{
		"name" : "Kyzylorda Region",
		"country_code" : "KZ",
		"county_code" : "",
		"fips_code" : "14",
		"iso2" : "KZY",
		"type" : null,
		"latitude" : 44.69226130,
		"longitude" : 62.65718850
	},
	{
		"name" : "Almaty Region",
		"country_code" : "KZ",
		"county_code" : "",
		"fips_code" : "01",
		"iso2" : "ALM",
		"type" : null,
		"latitude" : 45.01192270,
		"longitude" : 78.42293920
	},
	{
		"name" : "North Kazakhstan Region",
		"country_code" : "KZ",
		"county_code" : "",
		"fips_code" : "16",
		"iso2" : "SEV",
		"type" : null,
		"latitude" : 54.16220660,
		"longitude" : 69.93870710
	},
	{
		"name" : "Akmola Region",
		"country_code" : "KZ",
		"county_code" : "",
		"fips_code" : "03",
		"iso2" : "AKM",
		"type" : null,
		"latitude" : 51.91653200,
		"longitude" : 69.41104940
	},
	{
		"name" : "Pavlodar Region",
		"country_code" : "KZ",
		"county_code" : "",
		"fips_code" : "11",
		"iso2" : "PAV",
		"type" : null,
		"latitude" : 52.28784440,
		"longitude" : 76.97334530
	},
	{
		"name" : "Jambyl Region",
		"country_code" : "KZ",
		"county_code" : "",
		"fips_code" : "17",
		"iso2" : "ZHA",
		"type" : null,
		"latitude" : 44.22203080,
		"longitude" : 72.36579670
	},
	{
		"name" : "West Kazakhstan Province",
		"country_code" : "KZ",
		"county_code" : "",
		"fips_code" : "07",
		"iso2" : "ZAP",
		"type" : null,
		"latitude" : 49.56797270,
		"longitude" : 50.80666160
	},
	{
		"name" : "Turkestan Region",
		"country_code" : "KZ",
		"county_code" : "",
		"fips_code" : "10",
		"iso2" : "YUZ",
		"type" : null,
		"latitude" : 43.36669580,
		"longitude" : 68.40944050
	},
	{
		"name" : "Karaganda Region",
		"country_code" : "KZ",
		"county_code" : "",
		"fips_code" : "12",
		"iso2" : "KAR",
		"type" : null,
		"latitude" : 47.90221820,
		"longitude" : 71.77068070
	},
	{
		"name" : "Aktobe Region",
		"country_code" : "KZ",
		"county_code" : "",
		"fips_code" : "04",
		"iso2" : "AKT",
		"type" : null,
		"latitude" : 48.77970780,
		"longitude" : 57.99743780
	},
	{
		"name" : "Almaty",
		"country_code" : "KZ",
		"county_code" : "",
		"fips_code" : "02",
		"iso2" : "ALA",
		"type" : null,
		"latitude" : 43.22201460,
		"longitude" : 76.85124850
	},
	{
		"name" : "Atyrau Region",
		"country_code" : "KZ",
		"county_code" : "",
		"fips_code" : "06",
		"iso2" : "ATY",
		"type" : null,
		"latitude" : 47.10761880,
		"longitude" : 51.91413300
	},
	{
		"name" : "East Kazakhstan Region",
		"country_code" : "KZ",
		"county_code" : "",
		"fips_code" : "15",
		"iso2" : "VOS",
		"type" : null,
		"latitude" : 48.70626870,
		"longitude" : 80.79225340
	},
	{
		"name" : "Baikonur",
		"country_code" : "KZ",
		"county_code" : "",
		"fips_code" : "08",
		"iso2" : "BAY",
		"type" : null,
		"latitude" : 45.96458510,
		"longitude" : 63.30524280
	},
	{
		"name" : "Nur-Sultan",
		"country_code" : "KZ",
		"county_code" : "",
		"fips_code" : "05",
		"iso2" : "AST",
		"type" : null,
		"latitude" : 51.16052270,
		"longitude" : 71.47035580
	},
	{
		"name" : "Kostanay Region",
		"country_code" : "KZ",
		"county_code" : "",
		"fips_code" : "13",
		"iso2" : "KUS",
		"type" : null,
		"latitude" : 51.50770960,
		"longitude" : 64.04790730
	},
	{
		"name" : "Kakamega",
		"country_code" : "KE",
		"county_code" : "37",
		"fips_code" : "20",
		"iso2" : "11",
		"type" : "county",
		"latitude" : 0.30789400,
		"longitude" : 34.77407930
	},
	{
		"name" : "Kisii",
		"country_code" : "KE",
		"county_code" : "45",
		"fips_code" : "25",
		"iso2" : "16",
		"type" : "county",
		"latitude" : -0.67733400,
		"longitude" : 34.77960300
	},
	{
		"name" : "Busia",
		"country_code" : "KE",
		"county_code" : "40",
		"fips_code" : "13",
		"iso2" : "04",
		"type" : "county",
		"latitude" : 0.43465060,
		"longitude" : 34.24215970
	},
	{
		"name" : "Embu",
		"country_code" : "KE",
		"county_code" : "14",
		"fips_code" : "15",
		"iso2" : "06",
		"type" : "county",
		"latitude" : -0.65604770,
		"longitude" : 37.72376780
	},
	{
		"name" : "Laikipia",
		"country_code" : "KE",
		"county_code" : "31",
		"fips_code" : "29",
		"iso2" : "20",
		"type" : "county",
		"latitude" : 0.36060630,
		"longitude" : 36.78195050
	},
	{
		"name" : "Nandi",
		"country_code" : "KE",
		"county_code" : "29",
		"fips_code" : "40",
		"iso2" : "32",
		"type" : "county",
		"latitude" : 0.18358670,
		"longitude" : 35.12687810
	},
	{
		"name" : "Lamu",
		"country_code" : "KE",
		"county_code" : "5",
		"fips_code" : "30",
		"iso2" : "21",
		"type" : "county",
		"latitude" : -2.23550580,
		"longitude" : 40.47200040
	},
	{
		"name" : "Kirinyaga",
		"country_code" : "KE",
		"county_code" : "20",
		"fips_code" : "24",
		"iso2" : "15",
		"type" : "county",
		"latitude" : -0.65905650,
		"longitude" : 37.38272340
	},
	{
		"name" : "Bungoma",
		"country_code" : "KE",
		"county_code" : "39",
		"fips_code" : "12",
		"iso2" : "03",
		"type" : "county",
		"latitude" : 0.56952520,
		"longitude" : 34.55837660
	},
	{
		"name" : "Uasin Gishu",
		"country_code" : "KE",
		"county_code" : "27",
		"fips_code" : "52",
		"iso2" : "44",
		"type" : "county",
		"latitude" : 0.55276380,
		"longitude" : 35.30272260
	},
	{
		"name" : "Isiolo",
		"country_code" : "KE",
		"county_code" : "11",
		"fips_code" : "18",
		"iso2" : "09",
		"type" : "county",
		"latitude" : 0.35243520,
		"longitude" : 38.48499230
	},
	{
		"name" : "Kisumu",
		"country_code" : "KE",
		"county_code" : "42",
		"fips_code" : "26",
		"iso2" : "17",
		"type" : "county",
		"latitude" : -0.09170160,
		"longitude" : 34.76795680
	},
	{
		"name" : "Kwale",
		"country_code" : "KE",
		"county_code" : "2",
		"fips_code" : "28",
		"iso2" : "19",
		"type" : "county",
		"latitude" : -4.18161150,
		"longitude" : 39.46056120
	},
	{
		"name" : "Kilifi",
		"country_code" : "KE",
		"county_code" : "3",
		"fips_code" : "23",
		"iso2" : "14",
		"type" : "county",
		"latitude" : -3.51065080,
		"longitude" : 39.90932690
	},
	{
		"name" : "Narok",
		"country_code" : "KE",
		"county_code" : "33",
		"fips_code" : "41",
		"iso2" : "33",
		"type" : "county",
		"latitude" : -1.10411100,
		"longitude" : 36.08934060
	},
	{
		"name" : "Taita–Taveta",
		"country_code" : "KE",
		"county_code" : "6",
		"fips_code" : "41",
		"iso2" : "39",
		"type" : "county",
		"latitude" : -3.31606870,
		"longitude" : 38.48499230
	},
	{
		"name" : "Murang'a",
		"country_code" : "KE",
		"county_code" : "21",
		"fips_code" : "38",
		"iso2" : "29",
		"type" : "county",
		"latitude" : -0.78392810,
		"longitude" : 37.04003390
	},
	{
		"name" : "Nyeri",
		"country_code" : "KE",
		"county_code" : "19",
		"fips_code" : "44",
		"iso2" : "36",
		"type" : "county",
		"latitude" : -0.41969150,
		"longitude" : 37.04003390
	},
	{
		"name" : "Baringo",
		"country_code" : "KE",
		"county_code" : "30",
		"fips_code" : "10",
		"iso2" : "01",
		"type" : "county",
		"latitude" : 0.85549880,
		"longitude" : 36.08934060
	},
	{
		"name" : "Wajir",
		"country_code" : "KE",
		"county_code" : "8",
		"fips_code" : "54",
		"iso2" : "46",
		"type" : "county",
		"latitude" : 1.63604750,
		"longitude" : 40.30886260
	},
	{
		"name" : "Trans Nzoia",
		"country_code" : "KE",
		"county_code" : "26",
		"fips_code" : "50",
		"iso2" : "42",
		"type" : "county",
		"latitude" : 1.05666670,
		"longitude" : 34.95066250
	},
	{
		"name" : "Machakos",
		"country_code" : "KE",
		"county_code" : "16",
		"fips_code" : "31",
		"iso2" : "22",
		"type" : "county",
		"latitude" : -1.51768370,
		"longitude" : 37.26341460
	},
	{
		"name" : "Tharaka-Nithi",
		"country_code" : "KE",
		"county_code" : "13",
		"fips_code" : "49",
		"iso2" : "41",
		"type" : "county",
		"latitude" : -0.29648510,
		"longitude" : 37.72376780
	},
	{
		"name" : "Siaya",
		"country_code" : "KE",
		"county_code" : "41",
		"fips_code" : "46",
		"iso2" : "38",
		"type" : "county",
		"latitude" : -0.06173280,
		"longitude" : 34.24215970
	},
	{
		"name" : "Mandera",
		"country_code" : "KE",
		"county_code" : "9",
		"fips_code" : "33",
		"iso2" : "24",
		"type" : "county",
		"latitude" : 3.57379910,
		"longitude" : 40.95868800
	},
	{
		"name" : "Makueni",
		"country_code" : "KE",
		"county_code" : "17",
		"fips_code" : "32",
		"iso2" : "23",
		"type" : "county",
		"latitude" : -2.25587340,
		"longitude" : 37.89366630
	},
	{
		"name" : "Migori",
		"country_code" : "KE",
		"county_code" : "44",
		"fips_code" : "36",
		"iso2" : "27",
		"type" : "county",
		"latitude" : -0.93657020,
		"longitude" : 34.41982430
	},
	{
		"name" : "Nairobi City",
		"country_code" : "KE",
		"county_code" : "47",
		"fips_code" : "05",
		"iso2" : "30",
		"type" : "county",
		"latitude" : -1.29206590,
		"longitude" : 36.82194620
	},
	{
		"name" : "Nyandarua",
		"country_code" : "KE",
		"county_code" : "18",
		"fips_code" : "43",
		"iso2" : "35",
		"type" : "county",
		"latitude" : -0.18038550,
		"longitude" : 36.52296410
	},
	{
		"name" : "Kericho",
		"country_code" : "KE",
		"county_code" : "35",
		"fips_code" : "21",
		"iso2" : "12",
		"type" : "county",
		"latitude" : -0.18279130,
		"longitude" : 35.47819260
	},
	{
		"name" : "Marsabit",
		"country_code" : "KE",
		"county_code" : "10",
		"fips_code" : "34",
		"iso2" : "25",
		"type" : "county",
		"latitude" : 2.44264030,
		"longitude" : 37.97845850
	},
	{
		"name" : "Homa Bay",
		"country_code" : "KE",
		"county_code" : "43",
		"fips_code" : "17",
		"iso2" : "08",
		"type" : "county",
		"latitude" : -0.62206550,
		"longitude" : 34.33103640
	},
	{
		"name" : "Garissa",
		"country_code" : "KE",
		"county_code" : "7",
		"fips_code" : "16",
		"iso2" : "07",
		"type" : "county",
		"latitude" : -0.45322930,
		"longitude" : 39.64609880
	},
	{
		"name" : "Kajiado",
		"country_code" : "KE",
		"county_code" : "34",
		"fips_code" : "19",
		"iso2" : "10",
		"type" : "county",
		"latitude" : -2.09807510,
		"longitude" : 36.78195050
	},
	{
		"name" : "Meru",
		"country_code" : "KE",
		"county_code" : "12",
		"fips_code" : "35",
		"iso2" : "26",
		"type" : "county",
		"latitude" : 0.35571740,
		"longitude" : 37.80876930
	},
	{
		"name" : "Kiambu",
		"country_code" : "KE",
		"county_code" : "22",
		"fips_code" : "22",
		"iso2" : "13",
		"type" : "county",
		"latitude" : -1.03137010,
		"longitude" : 36.86807910
	},
	{
		"name" : "Mombasa",
		"country_code" : "KE",
		"county_code" : "1",
		"fips_code" : "37",
		"iso2" : "28",
		"type" : "county",
		"latitude" : -3.97682910,
		"longitude" : 39.71371810
	},
	{
		"name" : "Elgeyo-Marakwet",
		"country_code" : "KE",
		"county_code" : "28",
		"fips_code" : "37",
		"iso2" : "05",
		"type" : "county",
		"latitude" : 1.04982370,
		"longitude" : 35.47819260
	},
	{
		"name" : "Vihiga",
		"country_code" : "KE",
		"county_code" : "38",
		"fips_code" : "53",
		"iso2" : "45",
		"type" : "county",
		"latitude" : 0.07675530,
		"longitude" : 34.70776650
	},
	{
		"name" : "Nakuru",
		"country_code" : "KE",
		"county_code" : "32",
		"fips_code" : "39",
		"iso2" : "31",
		"type" : "county",
		"latitude" : -0.30309880,
		"longitude" : 36.08002600
	},
	{
		"name" : "Tana River",
		"country_code" : "KE",
		"county_code" : "4",
		"fips_code" : "48",
		"iso2" : "40",
		"type" : "county",
		"latitude" : -1.65184680,
		"longitude" : 39.65181650
	},
	{
		"name" : "Turkana",
		"country_code" : "KE",
		"county_code" : "23",
		"fips_code" : "51",
		"iso2" : "43",
		"type" : "county",
		"latitude" : 3.31224770,
		"longitude" : 35.56578620
	},
	{
		"name" : "Samburu",
		"country_code" : "KE",
		"county_code" : "25",
		"fips_code" : "45",
		"iso2" : "37",
		"type" : "county",
		"latitude" : 1.21545060,
		"longitude" : 36.95410700
	},
	{
		"name" : "West Pokot",
		"country_code" : "KE",
		"county_code" : "24",
		"fips_code" : "55",
		"iso2" : "47",
		"type" : "county",
		"latitude" : 1.62100760,
		"longitude" : 35.39050460
	},
	{
		"name" : "Nyamira",
		"country_code" : "KE",
		"county_code" : "46",
		"fips_code" : "42",
		"iso2" : "34",
		"type" : "county",
		"latitude" : -0.56694050,
		"longitude" : 34.93412340
	},
	{
		"name" : "Bomet",
		"country_code" : "KE",
		"county_code" : "36",
		"fips_code" : "11",
		"iso2" : "02",
		"type" : "county",
		"latitude" : -0.80150090,
		"longitude" : 35.30272260
	},
	{
		"name" : "Kitui",
		"country_code" : "KE",
		"county_code" : "15",
		"fips_code" : "27",
		"iso2" : "18",
		"type" : "county",
		"latitude" : -1.68328220,
		"longitude" : 38.31657250
	},
	{
		"name" : "Bié Province",
		"country_code" : "AO",
		"county_code" : "",
		"fips_code" : "02",
		"iso2" : "BIE",
		"type" : null,
		"latitude" : -12.57279070,
		"longitude" : 17.66888700
	},
	{
		"name" : "Huambo Province",
		"country_code" : "AO",
		"county_code" : "",
		"fips_code" : "08",
		"iso2" : "HUA",
		"type" : null,
		"latitude" : -12.52682210,
		"longitude" : 15.59433880
	},
	{
		"name" : "Zaire Province",
		"country_code" : "AO",
		"county_code" : "",
		"fips_code" : "16",
		"iso2" : "ZAI",
		"type" : null,
		"latitude" : -6.57334580,
		"longitude" : 13.17403480
	},
	{
		"name" : "Cunene Province",
		"country_code" : "AO",
		"county_code" : "",
		"fips_code" : "07",
		"iso2" : "CNN",
		"type" : null,
		"latitude" : -16.28022210,
		"longitude" : 16.15809370
	},
	{
		"name" : "Cuanza Sul",
		"country_code" : "AO",
		"county_code" : "",
		"fips_code" : "06",
		"iso2" : "CUS",
		"type" : null,
		"latitude" : -10.59519100,
		"longitude" : 15.40680790
	},
	{
		"name" : "Cuanza Norte Province",
		"country_code" : "AO",
		"county_code" : "",
		"fips_code" : "05",
		"iso2" : "CNO",
		"type" : null,
		"latitude" : -9.23985130,
		"longitude" : 14.65878210
	},
	{
		"name" : "Benguela Province",
		"country_code" : "AO",
		"county_code" : "",
		"fips_code" : "01",
		"iso2" : "BGU",
		"type" : null,
		"latitude" : -12.80037440,
		"longitude" : 13.91439900
	},
	{
		"name" : "Moxico Province",
		"country_code" : "AO",
		"county_code" : "",
		"fips_code" : "14",
		"iso2" : "MOX",
		"type" : null,
		"latitude" : -13.42935790,
		"longitude" : 20.33088140
	},
	{
		"name" : "Lunda Sul Province",
		"country_code" : "AO",
		"county_code" : "",
		"fips_code" : "18",
		"iso2" : "LSU",
		"type" : null,
		"latitude" : -10.28665780,
		"longitude" : 20.71224650
	},
	{
		"name" : "Bengo Province",
		"country_code" : "AO",
		"county_code" : "",
		"fips_code" : "19",
		"iso2" : "BGO",
		"type" : null,
		"latitude" : -9.10422570,
		"longitude" : 13.72891670
	},
	{
		"name" : "Luanda Province",
		"country_code" : "AO",
		"county_code" : "",
		"fips_code" : "20",
		"iso2" : "LUA",
		"type" : null,
		"latitude" : -9.03508800,
		"longitude" : 13.26634790
	},
	{
		"name" : "Lunda Norte Province",
		"country_code" : "AO",
		"county_code" : "",
		"fips_code" : "17",
		"iso2" : "LNO",
		"type" : null,
		"latitude" : -8.35250220,
		"longitude" : 19.18800470
	},
	{
		"name" : "Uíge Province",
		"country_code" : "AO",
		"county_code" : "",
		"fips_code" : "15",
		"iso2" : "UIG",
		"type" : null,
		"latitude" : -7.17367320,
		"longitude" : 15.40680790
	},
	{
		"name" : "Huíla Province",
		"country_code" : "AO",
		"county_code" : "",
		"fips_code" : "09",
		"iso2" : "HUI",
		"type" : null,
		"latitude" : -14.92805530,
		"longitude" : 14.65878210
	},
	{
		"name" : "Cuando Cubango Province",
		"country_code" : "AO",
		"county_code" : "",
		"fips_code" : "04",
		"iso2" : "CCU",
		"type" : null,
		"latitude" : -16.41808240,
		"longitude" : 18.80761950
	},
	{
		"name" : "Malanje Province",
		"country_code" : "AO",
		"county_code" : "",
		"fips_code" : "12",
		"iso2" : "MAL",
		"type" : null,
		"latitude" : -9.82511830,
		"longitude" : 16.91225100
	},
	{
		"name" : "Cabinda Province",
		"country_code" : "AO",
		"county_code" : "",
		"fips_code" : "03",
		"iso2" : "CAB",
		"type" : null,
		"latitude" : -5.02487490,
		"longitude" : 12.34638750
	},
	{
		"name" : "Gasa District",
		"country_code" : "BT",
		"county_code" : "",
		"fips_code" : "23",
		"iso2" : "GA",
		"type" : null,
		"latitude" : 28.01858860,
		"longitude" : 89.92532330
	},
	{
		"name" : "Tsirang District",
		"country_code" : "BT",
		"county_code" : "",
		"fips_code" : "07",
		"iso2" : "21",
		"type" : null,
		"latitude" : 27.03220700,
		"longitude" : 90.18696440
	},
	{
		"name" : "Wangdue Phodrang District",
		"country_code" : "BT",
		"county_code" : "",
		"fips_code" : "07",
		"iso2" : "24",
		"type" : null,
		"latitude" : 27.45260460,
		"longitude" : 90.06749280
	},
	{
		"name" : "Haa District",
		"country_code" : "BT",
		"county_code" : "",
		"fips_code" : "10",
		"iso2" : "13",
		"type" : null,
		"latitude" : 27.26516690,
		"longitude" : 89.17059980
	},
	{
		"name" : "Zhemgang District",
		"country_code" : "BT",
		"county_code" : "",
		"fips_code" : "18",
		"iso2" : "34",
		"type" : null,
		"latitude" : 27.07697500,
		"longitude" : 90.82940020
	},
	{
		"name" : "Lhuntse District",
		"country_code" : "BT",
		"county_code" : "",
		"fips_code" : "11",
		"iso2" : "44",
		"type" : null,
		"latitude" : 27.82649890,
		"longitude" : 91.13530200
	},
	{
		"name" : "Punakha District",
		"country_code" : "BT",
		"county_code" : "",
		"fips_code" : "15",
		"iso2" : "23",
		"type" : null,
		"latitude" : 27.69037160,
		"longitude" : 89.88793040
	},
	{
		"name" : "Trashigang District",
		"country_code" : "BT",
		"county_code" : "",
		"fips_code" : "19",
		"iso2" : "41",
		"type" : null,
		"latitude" : 27.25667950,
		"longitude" : 91.75388170
	},
	{
		"name" : "Paro District",
		"country_code" : "BT",
		"county_code" : "",
		"fips_code" : "13",
		"iso2" : "11",
		"type" : null,
		"latitude" : 27.42859490,
		"longitude" : 89.41665160
	},
	{
		"name" : "Dagana District",
		"country_code" : "BT",
		"county_code" : "",
		"fips_code" : "08",
		"iso2" : "22",
		"type" : null,
		"latitude" : 27.03228610,
		"longitude" : 89.88793040
	},
	{
		"name" : "Chukha District",
		"country_code" : "BT",
		"county_code" : "",
		"fips_code" : "06",
		"iso2" : "12",
		"type" : null,
		"latitude" : 27.07843040,
		"longitude" : 89.47421770
	},
	{
		"name" : "Bumthang District",
		"country_code" : "BT",
		"county_code" : "",
		"fips_code" : "05",
		"iso2" : "33",
		"type" : null,
		"latitude" : 27.64183900,
		"longitude" : 90.67730460
	},
	{
		"name" : "Thimphu District",
		"country_code" : "BT",
		"county_code" : "",
		"fips_code" : "20",
		"iso2" : "15",
		"type" : null,
		"latitude" : 27.47122160,
		"longitude" : 89.63390410
	},
	{
		"name" : "Mongar District",
		"country_code" : "BT",
		"county_code" : "",
		"fips_code" : "12",
		"iso2" : "42",
		"type" : null,
		"latitude" : 27.26170590,
		"longitude" : 91.28910360
	},
	{
		"name" : "Samdrup Jongkhar District",
		"country_code" : "BT",
		"county_code" : "",
		"fips_code" : "17",
		"iso2" : "45",
		"type" : null,
		"latitude" : 26.80356820,
		"longitude" : 91.50392070
	},
	{
		"name" : "Pemagatshel District",
		"country_code" : "BT",
		"county_code" : "",
		"fips_code" : "14",
		"iso2" : "43",
		"type" : null,
		"latitude" : 27.00238200,
		"longitude" : 91.34692470
	},
	{
		"name" : "Trongsa District",
		"country_code" : "BT",
		"county_code" : "",
		"fips_code" : "14",
		"iso2" : "32",
		"type" : null,
		"latitude" : 27.50022690,
		"longitude" : 90.50806340
	},
	{
		"name" : "Samtse District",
		"country_code" : "BT",
		"county_code" : "",
		"fips_code" : "16",
		"iso2" : "14",
		"type" : null,
		"latitude" : 27.02918320,
		"longitude" : 89.05615320
	},
	{
		"name" : "Sarpang District",
		"country_code" : "BT",
		"county_code" : "",
		"fips_code" : "09",
		"iso2" : "31",
		"type" : null,
		"latitude" : 26.93730410,
		"longitude" : 90.48799160
	},
	{
		"name" : "Tombouctou Region",
		"country_code" : "ML",
		"county_code" : "",
		"fips_code" : "08",
		"iso2" : "6",
		"type" : null,
		"latitude" : 21.05267060,
		"longitude" : -3.74350900
	},
	{
		"name" : "Ségou Region",
		"country_code" : "ML",
		"county_code" : "",
		"fips_code" : "05",
		"iso2" : "4",
		"type" : null,
		"latitude" : 13.83944560,
		"longitude" : -6.06791940
	},
	{
		"name" : "Koulikoro Region",
		"country_code" : "ML",
		"county_code" : "",
		"fips_code" : "07",
		"iso2" : "2",
		"type" : null,
		"latitude" : 13.80180740,
		"longitude" : -7.43813550
	},
	{
		"name" : "Ménaka Region",
		"country_code" : "ML",
		"county_code" : "",
		"fips_code" : "07",
		"iso2" : "9",
		"type" : null,
		"latitude" : 15.91564210,
		"longitude" : 2.39617400
	},
	{
		"name" : "Kayes Region",
		"country_code" : "ML",
		"county_code" : "",
		"fips_code" : "03",
		"iso2" : "1",
		"type" : null,
		"latitude" : 14.08183080,
		"longitude" : -9.90181310
	},
	{
		"name" : "Bamako",
		"country_code" : "ML",
		"county_code" : "",
		"fips_code" : "01",
		"iso2" : "BKO",
		"type" : null,
		"latitude" : 12.63923160,
		"longitude" : -8.00288920
	},
	{
		"name" : "Sikasso Region",
		"country_code" : "ML",
		"county_code" : "",
		"fips_code" : "06",
		"iso2" : "3",
		"type" : null,
		"latitude" : 10.89051860,
		"longitude" : -7.43813550
	},
	{
		"name" : "Mopti Region",
		"country_code" : "ML",
		"county_code" : "",
		"fips_code" : "04",
		"iso2" : "5",
		"type" : null,
		"latitude" : 14.63380390,
		"longitude" : -3.41955270
	},
	{
		"name" : "Taoudénit Region",
		"country_code" : "ML",
		"county_code" : "",
		"fips_code" : "04",
		"iso2" : "10",
		"type" : null,
		"latitude" : 22.67641320,
		"longitude" : -3.97891430
	},
	{
		"name" : "Kidal Region",
		"country_code" : "ML",
		"county_code" : "",
		"fips_code" : "10",
		"iso2" : "8",
		"type" : null,
		"latitude" : 18.79868320,
		"longitude" : 1.83183340
	},
	{
		"name" : "Gao Region",
		"country_code" : "ML",
		"county_code" : "",
		"fips_code" : "09",
		"iso2" : "7",
		"type" : null,
		"latitude" : 16.90663320,
		"longitude" : 1.52086240
	},
	{
		"name" : "Southern Province",
		"country_code" : "RW",
		"county_code" : "",
		"fips_code" : "15",
		"iso2" : "05",
		"type" : null,
		"latitude" : null,
		"longitude" : null
	},
	{
		"name" : "Western Province",
		"country_code" : "RW",
		"county_code" : "",
		"fips_code" : "14",
		"iso2" : "04",
		"type" : null,
		"latitude" : null,
		"longitude" : null
	},
	{
		"name" : "Eastern Province",
		"country_code" : "RW",
		"county_code" : "",
		"fips_code" : "11",
		"iso2" : "02",
		"type" : null,
		"latitude" : null,
		"longitude" : null
	},
	{
		"name" : "Kigali district",
		"country_code" : "RW",
		"county_code" : "",
		"fips_code" : "12",
		"iso2" : "01",
		"type" : null,
		"latitude" : -1.94407270,
		"longitude" : 30.06188510
	},
	{
		"name" : "Northern Province",
		"country_code" : "RW",
		"county_code" : "",
		"fips_code" : "13",
		"iso2" : "03",
		"type" : null,
		"latitude" : null,
		"longitude" : null
	},
	{
		"name" : "Belize District",
		"country_code" : "BZ",
		"county_code" : "",
		"fips_code" : "01",
		"iso2" : "BZ",
		"type" : null,
		"latitude" : 17.56776790,
		"longitude" : -88.40160410
	},
	{
		"name" : "Stann Creek District",
		"country_code" : "BZ",
		"county_code" : "",
		"fips_code" : "05",
		"iso2" : "SC",
		"type" : null,
		"latitude" : 16.81166310,
		"longitude" : -88.40160410
	},
	{
		"name" : "Corozal District",
		"country_code" : "BZ",
		"county_code" : "",
		"fips_code" : "03",
		"iso2" : "CZL",
		"type" : null,
		"latitude" : 18.13492380,
		"longitude" : -88.24611830
	},
	{
		"name" : "Toledo District",
		"country_code" : "BZ",
		"county_code" : "",
		"fips_code" : "06",
		"iso2" : "TOL",
		"type" : null,
		"latitude" : 16.24919230,
		"longitude" : -88.86469800
	},
	{
		"name" : "Orange Walk District",
		"country_code" : "BZ",
		"county_code" : "",
		"fips_code" : "04",
		"iso2" : "OW",
		"type" : null,
		"latitude" : 17.76035300,
		"longitude" : -88.86469800
	},
	{
		"name" : "Cayo District",
		"country_code" : "BZ",
		"county_code" : "",
		"fips_code" : "02",
		"iso2" : "CY",
		"type" : null,
		"latitude" : 17.09844450,
		"longitude" : -88.94138650
	},
	{
		"name" : "Príncipe Province",
		"country_code" : "ST",
		"county_code" : "",
		"fips_code" : "01",
		"iso2" : "P",
		"type" : null,
		"latitude" : 1.61393810,
		"longitude" : 7.40569280
	},
	{
		"name" : "São Tomé Province",
		"country_code" : "ST",
		"county_code" : "",
		"fips_code" : "02",
		"iso2" : "S",
		"type" : null,
		"latitude" : 0.33019240,
		"longitude" : 6.73334300
	},
	{
		"name" : "Havana Province",
		"country_code" : "CU",
		"county_code" : "",
		"fips_code" : "02",
		"iso2" : "03",
		"type" : null,
		"latitude" : 23.05406980,
		"longitude" : -82.34518900
	},
	{
		"name" : "Santiago de Cuba Province",
		"country_code" : "CU",
		"county_code" : "",
		"fips_code" : "15",
		"iso2" : "13",
		"type" : null,
		"latitude" : 20.23976820,
		"longitude" : -75.99276520
	},
	{
		"name" : "Sancti Spíritus Province",
		"country_code" : "CU",
		"county_code" : "",
		"fips_code" : "14",
		"iso2" : "07",
		"type" : null,
		"latitude" : 21.99382140,
		"longitude" : -79.47038850
	},
	{
		"name" : "Granma Province",
		"country_code" : "CU",
		"county_code" : "",
		"fips_code" : "09",
		"iso2" : "12",
		"type" : null,
		"latitude" : 20.38449020,
		"longitude" : -76.64127120
	},
	{
		"name" : "Mayabeque Province",
		"country_code" : "CU",
		"county_code" : "",
		"fips_code" : "MA",
		"iso2" : "16",
		"type" : null,
		"latitude" : 22.89265290,
		"longitude" : -81.95348150
	},
	{
		"name" : "Pinar del Río Province",
		"country_code" : "CU",
		"county_code" : "",
		"fips_code" : "01",
		"iso2" : "01",
		"type" : null,
		"latitude" : 22.40762560,
		"longitude" : -83.84730150
	},
	{
		"name" : "Isla de la Juventud",
		"country_code" : "CU",
		"county_code" : "",
		"fips_code" : "04",
		"iso2" : "99",
		"type" : null,
		"latitude" : 21.70847370,
		"longitude" : -82.82202320
	},
	{
		"name" : "Holguín Province",
		"country_code" : "CU",
		"county_code" : "",
		"fips_code" : "12",
		"iso2" : "11",
		"type" : null,
		"latitude" : 20.78378930,
		"longitude" : -75.80690820
	},
	{
		"name" : "Villa Clara Province",
		"country_code" : "CU",
		"county_code" : "",
		"fips_code" : "16",
		"iso2" : "05",
		"type" : null,
		"latitude" : 22.49372040,
		"longitude" : -79.91927020
	},
	{
		"name" : "Las Tunas Province",
		"country_code" : "CU",
		"county_code" : "",
		"fips_code" : "13",
		"iso2" : "10",
		"type" : null,
		"latitude" : 21.06051620,
		"longitude" : -76.91820970
	},
	{
		"name" : "Ciego de Ávila Province",
		"country_code" : "CU",
		"county_code" : "",
		"fips_code" : "07",
		"iso2" : "08",
		"type" : null,
		"latitude" : 21.93295150,
		"longitude" : -78.56608520
	},
	{
		"name" : "Artemisa Province",
		"country_code" : "CU",
		"county_code" : "",
		"fips_code" : "AR",
		"iso2" : "15",
		"type" : null,
		"latitude" : 22.75229030,
		"longitude" : -82.99316070
	},
	{
		"name" : "Matanzas Province",
		"country_code" : "CU",
		"county_code" : "",
		"fips_code" : "03",
		"iso2" : "04",
		"type" : null,
		"latitude" : 22.57671230,
		"longitude" : -81.33994140
	},
	{
		"name" : "Guantánamo Province",
		"country_code" : "CU",
		"county_code" : "",
		"fips_code" : "10",
		"iso2" : "14",
		"type" : null,
		"latitude" : 20.14559170,
		"longitude" : -74.87410450
	},
	{
		"name" : "Camagüey Province",
		"country_code" : "CU",
		"county_code" : "",
		"fips_code" : "05",
		"iso2" : "09",
		"type" : null,
		"latitude" : 21.21672470,
		"longitude" : -77.74520810
	},
	{
		"name" : "Cienfuegos Province",
		"country_code" : "CU",
		"county_code" : "",
		"fips_code" : "08",
		"iso2" : "06",
		"type" : null,
		"latitude" : 22.23797830,
		"longitude" : -80.36586500
	},
	{
		"name" : "Jigawa",
		"country_code" : "NG",
		"county_code" : "",
		"fips_code" : "39",
		"iso2" : "JI",
		"type" : "state",
		"latitude" : 12.22801200,
		"longitude" : 9.56158670
	},
	{
		"name" : "Enugu",
		"country_code" : "NG",
		"county_code" : "",
		"fips_code" : "47",
		"iso2" : "EN",
		"type" : "state",
		"latitude" : 6.53635300,
		"longitude" : 7.43561940
	},
	{
		"name" : "Kebbi",
		"country_code" : "NG",
		"county_code" : "",
		"fips_code" : "40",
		"iso2" : "KE",
		"type" : "state",
		"latitude" : 11.49420030,
		"longitude" : 4.23333550
	},
	{
		"name" : "Benue",
		"country_code" : "NG",
		"county_code" : "",
		"fips_code" : "26",
		"iso2" : "BE",
		"type" : "state",
		"latitude" : 7.33690240,
		"longitude" : 8.74036870
	},
	{
		"name" : "Sokoto",
		"country_code" : "NG",
		"county_code" : "",
		"fips_code" : "51",
		"iso2" : "SO",
		"type" : "state",
		"latitude" : 13.05331430,
		"longitude" : 5.32227220
	},
	{
		"name" : "Abuja Federal Capital Territory",
		"country_code" : "NG",
		"county_code" : "",
		"fips_code" : "11",
		"iso2" : "FC",
		"type" : "capital territory",
		"latitude" : 8.89406910,
		"longitude" : 7.18604020
	},
	{
		"name" : "Kaduna",
		"country_code" : "NG",
		"county_code" : "",
		"fips_code" : "23",
		"iso2" : "KD",
		"type" : "state",
		"latitude" : 10.37640060,
		"longitude" : 7.70945370
	},
	{
		"name" : "Kwara",
		"country_code" : "NG",
		"county_code" : "",
		"fips_code" : "30",
		"iso2" : "KW",
		"type" : "state",
		"latitude" : 8.96689610,
		"longitude" : 4.38740510
	},
	{
		"name" : "Oyo",
		"country_code" : "NG",
		"county_code" : "",
		"fips_code" : "32",
		"iso2" : "OY",
		"type" : "state",
		"latitude" : 8.15738090,
		"longitude" : 3.61465340
	},
	{
		"name" : "Yobe",
		"country_code" : "NG",
		"county_code" : "",
		"fips_code" : "44",
		"iso2" : "YO",
		"type" : "state",
		"latitude" : 12.29387600,
		"longitude" : 11.43904110
	},
	{
		"name" : "Kogi",
		"country_code" : "NG",
		"county_code" : "",
		"fips_code" : "41",
		"iso2" : "KO",
		"type" : "state",
		"latitude" : 7.73373250,
		"longitude" : 6.69058360
	},
	{
		"name" : "Zamfara",
		"country_code" : "NG",
		"county_code" : "",
		"fips_code" : "57",
		"iso2" : "ZA",
		"type" : "state",
		"latitude" : 12.12218050,
		"longitude" : 6.22358190
	},
	{
		"name" : "Kano",
		"country_code" : "NG",
		"county_code" : "",
		"fips_code" : "29",
		"iso2" : "KN",
		"type" : "state",
		"latitude" : 11.74706980,
		"longitude" : 8.52471070
	},
	{
		"name" : "Nasarawa",
		"country_code" : "NG",
		"county_code" : "",
		"fips_code" : "56",
		"iso2" : "NA",
		"type" : "state",
		"latitude" : 8.49979080,
		"longitude" : 8.19969370
	},
	{
		"name" : "Plateau",
		"country_code" : "NG",
		"county_code" : "",
		"fips_code" : "49",
		"iso2" : "PL",
		"type" : "state",
		"latitude" : 9.21820930,
		"longitude" : 9.51794880
	},
	{
		"name" : "Abia",
		"country_code" : "NG",
		"county_code" : "",
		"fips_code" : "45",
		"iso2" : "AB",
		"type" : "state",
		"latitude" : 5.45273540,
		"longitude" : 7.52484140
	},
	{
		"name" : "Akwa Ibom",
		"country_code" : "NG",
		"county_code" : "",
		"fips_code" : "21",
		"iso2" : "AK",
		"type" : "state",
		"latitude" : 4.90573710,
		"longitude" : 7.85366750
	},
	{
		"name" : "Bayelsa",
		"country_code" : "NG",
		"county_code" : "",
		"fips_code" : "52",
		"iso2" : "BY",
		"type" : "state",
		"latitude" : 4.77190710,
		"longitude" : 6.06985260
	},
	{
		"name" : "Lagos",
		"country_code" : "NG",
		"county_code" : "",
		"fips_code" : "05",
		"iso2" : "LA",
		"type" : "state",
		"latitude" : 6.52437930,
		"longitude" : 3.37920570
	},
	{
		"name" : "Borno",
		"country_code" : "NG",
		"county_code" : "",
		"fips_code" : "27",
		"iso2" : "BO",
		"type" : "state",
		"latitude" : 11.88463560,
		"longitude" : 13.15196650
	},
	{
		"name" : "Imo",
		"country_code" : "NG",
		"county_code" : "",
		"fips_code" : "28",
		"iso2" : "IM",
		"type" : "state",
		"latitude" : 5.57201220,
		"longitude" : 7.05882190
	},
	{
		"name" : "Ekiti",
		"country_code" : "NG",
		"county_code" : "",
		"fips_code" : "54",
		"iso2" : "EK",
		"type" : "state",
		"latitude" : 7.71898620,
		"longitude" : 5.31095050
	},
	{
		"name" : "Gombe",
		"country_code" : "NG",
		"county_code" : "",
		"fips_code" : "55",
		"iso2" : "GO",
		"type" : "state",
		"latitude" : 10.36377950,
		"longitude" : 11.19275870
	},
	{
		"name" : "Ebonyi",
		"country_code" : "NG",
		"county_code" : "",
		"fips_code" : "53",
		"iso2" : "EB",
		"type" : "state",
		"latitude" : 6.26492320,
		"longitude" : 8.01373020
	},
	{
		"name" : "Bauchi",
		"country_code" : "NG",
		"county_code" : "",
		"fips_code" : "46",
		"iso2" : "BA",
		"type" : "state",
		"latitude" : 10.77606240,
		"longitude" : 9.99919430
	},
	{
		"name" : "Katsina",
		"country_code" : "NG",
		"county_code" : "",
		"fips_code" : "24",
		"iso2" : "KT",
		"type" : "state",
		"latitude" : 12.37967070,
		"longitude" : 7.63057480
	},
	{
		"name" : "Cross River",
		"country_code" : "NG",
		"county_code" : "",
		"fips_code" : "22",
		"iso2" : "CR",
		"type" : "state",
		"latitude" : 5.87017240,
		"longitude" : 8.59880140
	},
	{
		"name" : "Anambra",
		"country_code" : "NG",
		"county_code" : "",
		"fips_code" : "25",
		"iso2" : "AN",
		"type" : "state",
		"latitude" : 6.22089970,
		"longitude" : 6.93695590
	},
	{
		"name" : "Delta",
		"country_code" : "NG",
		"county_code" : "",
		"fips_code" : "36",
		"iso2" : "DE",
		"type" : "state",
		"latitude" : 33.74537840,
		"longitude" : -90.73545080
	},
	{
		"name" : "Niger",
		"country_code" : "NG",
		"county_code" : "",
		"fips_code" : "31",
		"iso2" : "NI",
		"type" : "state",
		"latitude" : 9.93092240,
		"longitude" : 5.59832100
	},
	{
		"name" : "Edo",
		"country_code" : "NG",
		"county_code" : "",
		"fips_code" : "37",
		"iso2" : "ED",
		"type" : "state",
		"latitude" : 6.63418310,
		"longitude" : 5.93040560
	},
	{
		"name" : "Taraba",
		"country_code" : "NG",
		"county_code" : "",
		"fips_code" : "43",
		"iso2" : "TA",
		"type" : "state",
		"latitude" : 7.99936160,
		"longitude" : 10.77398630
	},
	{
		"name" : "Adamawa",
		"country_code" : "NG",
		"county_code" : "",
		"fips_code" : "35",
		"iso2" : "AD",
		"type" : "state",
		"latitude" : 9.32647510,
		"longitude" : 12.39838530
	},
	{
		"name" : "Ondo",
		"country_code" : "NG",
		"county_code" : "",
		"fips_code" : "48",
		"iso2" : "ON",
		"type" : "state",
		"latitude" : 6.91486820,
		"longitude" : 5.14781440
	},
	{
		"name" : "Osun",
		"country_code" : "NG",
		"county_code" : "",
		"fips_code" : "42",
		"iso2" : "OS",
		"type" : "state",
		"latitude" : 7.56289640,
		"longitude" : 4.51995930
	},
	{
		"name" : "Ogun",
		"country_code" : "NG",
		"county_code" : "",
		"fips_code" : "16",
		"iso2" : "OG",
		"type" : "state",
		"latitude" : 6.99797470,
		"longitude" : 3.47373780
	},
	{
		"name" : "Rukungiri District",
		"country_code" : "UG",
		"county_code" : "",
		"fips_code" : "93",
		"iso2" : "412",
		"type" : null,
		"latitude" : -0.75184900,
		"longitude" : 29.92779470
	},
	{
		"name" : "Kyankwanzi District",
		"country_code" : "UG",
		"county_code" : "",
		"fips_code" : "93",
		"iso2" : "123",
		"type" : null,
		"latitude" : 1.09660370,
		"longitude" : 31.71954590
	},
	{
		"name" : "Kabarole District",
		"country_code" : "UG",
		"county_code" : "",
		"fips_code" : "79",
		"iso2" : "405",
		"type" : null,
		"latitude" : 0.58507910,
		"longitude" : 30.25127280
	},
	{
		"name" : "Mpigi District",
		"country_code" : "UG",
		"county_code" : "",
		"fips_code" : "89",
		"iso2" : "106",
		"type" : null,
		"latitude" : 0.22735280,
		"longitude" : 32.32492360
	},
	{
		"name" : "Apac District",
		"country_code" : "UG",
		"county_code" : "",
		"fips_code" : "26",
		"iso2" : "302",
		"type" : null,
		"latitude" : 1.87302630,
		"longitude" : 32.62774550
	},
	{
		"name" : "Abim District",
		"country_code" : "UG",
		"county_code" : "",
		"fips_code" : "26",
		"iso2" : "314",
		"type" : null,
		"latitude" : 2.70669800,
		"longitude" : 33.65953370
	},
	{
		"name" : "Yumbe District",
		"country_code" : "UG",
		"county_code" : "",
		"fips_code" : "97",
		"iso2" : "313",
		"type" : null,
		"latitude" : 3.46980230,
		"longitude" : 31.24832910
	},
	{
		"name" : "Rukiga District",
		"country_code" : "UG",
		"county_code" : "",
		"fips_code" : "97",
		"iso2" : "431",
		"type" : null,
		"latitude" : -1.13263370,
		"longitude" : 30.04341200
	},
	{
		"name" : "Northern Region",
		"country_code" : "UG",
		"county_code" : "",
		"fips_code" : "N",
		"iso2" : "N",
		"type" : null,
		"latitude" : 9.54392690,
		"longitude" : -0.90566230
	},
	{
		"name" : "Serere District",
		"country_code" : "UG",
		"county_code" : "",
		"fips_code" : "N",
		"iso2" : "232",
		"type" : null,
		"latitude" : 1.49940330,
		"longitude" : 33.54900780
	},
	{
		"name" : "Kamuli District",
		"country_code" : "UG",
		"county_code" : "",
		"fips_code" : "38",
		"iso2" : "205",
		"type" : null,
		"latitude" : 0.91871070,
		"longitude" : 33.12390490
	},
	{
		"name" : "Amuru District",
		"country_code" : "UG",
		"county_code" : "",
		"fips_code" : "38",
		"iso2" : "316",
		"type" : null,
		"latitude" : 2.96678780,
		"longitude" : 32.08374450
	},
	{
		"name" : "Kaberamaido District",
		"country_code" : "UG",
		"county_code" : "",
		"fips_code" : "80",
		"iso2" : "213",
		"type" : null,
		"latitude" : 1.69633220,
		"longitude" : 33.21385100
	},
	{
		"name" : "Namutumba District",
		"country_code" : "UG",
		"county_code" : "",
		"fips_code" : "80",
		"iso2" : "224",
		"type" : null,
		"latitude" : 0.84926100,
		"longitude" : 33.66233010
	},
	{
		"name" : "Kibuku District",
		"country_code" : "UG",
		"county_code" : "",
		"fips_code" : "80",
		"iso2" : "227",
		"type" : null,
		"latitude" : 1.04528740,
		"longitude" : 33.79925360
	},
	{
		"name" : "Ibanda District",
		"country_code" : "UG",
		"county_code" : "",
		"fips_code" : "80",
		"iso2" : "417",
		"type" : null,
		"latitude" : -0.09648900,
		"longitude" : 30.57395790
	},
	{
		"name" : "Iganga District",
		"country_code" : "UG",
		"county_code" : "",
		"fips_code" : "78",
		"iso2" : "203",
		"type" : null,
		"latitude" : 0.66001370,
		"longitude" : 33.48319060
	},
	{
		"name" : "Dokolo District",
		"country_code" : "UG",
		"county_code" : "",
		"fips_code" : "78",
		"iso2" : "317",
		"type" : null,
		"latitude" : 1.96364210,
		"longitude" : 33.03387670
	},
	{
		"name" : "Lira District",
		"country_code" : "UG",
		"county_code" : "",
		"fips_code" : "47",
		"iso2" : "307",
		"type" : null,
		"latitude" : 2.23161690,
		"longitude" : 32.94376670
	},
	{
		"name" : "Bukedea District",
		"country_code" : "UG",
		"county_code" : "",
		"fips_code" : "47",
		"iso2" : "219",
		"type" : null,
		"latitude" : 1.35568980,
		"longitude" : 34.10867930
	},
	{
		"name" : "Alebtong District",
		"country_code" : "UG",
		"county_code" : "",
		"fips_code" : "47",
		"iso2" : "323",
		"type" : null,
		"latitude" : 2.25457730,
		"longitude" : 33.34861470
	},
	{
		"name" : "Koboko District",
		"country_code" : "UG",
		"county_code" : "",
		"fips_code" : "47",
		"iso2" : "319",
		"type" : null,
		"latitude" : 3.52370580,
		"longitude" : 31.03351000
	},
	{
		"name" : "Kiryandongo District",
		"country_code" : "UG",
		"county_code" : "",
		"fips_code" : "47",
		"iso2" : "421",
		"type" : null,
		"latitude" : 2.01799070,
		"longitude" : 32.08374450
	},
	{
		"name" : "Kiboga District",
		"country_code" : "UG",
		"county_code" : "",
		"fips_code" : "42",
		"iso2" : "103",
		"type" : null,
		"latitude" : 0.96575900,
		"longitude" : 31.71954590
	},
	{
		"name" : "Kitgum District",
		"country_code" : "UG",
		"county_code" : "",
		"fips_code" : "84",
		"iso2" : "305",
		"type" : null,
		"latitude" : 3.33968290,
		"longitude" : 33.16888830
	},
	{
		"name" : "Bududa District",
		"country_code" : "UG",
		"county_code" : "",
		"fips_code" : "84",
		"iso2" : "218",
		"type" : null,
		"latitude" : 1.00296930,
		"longitude" : 34.33381230
	},
	{
		"name" : "Mbale District",
		"country_code" : "UG",
		"county_code" : "",
		"fips_code" : "87",
		"iso2" : "209",
		"type" : null,
		"latitude" : 1.03442740,
		"longitude" : 34.19768820
	},
	{
		"name" : "Namayingo District",
		"country_code" : "UG",
		"county_code" : "",
		"fips_code" : "87",
		"iso2" : "230",
		"type" : null,
		"latitude" : -0.28035750,
		"longitude" : 33.75177230
	},
	{
		"name" : "Amuria District",
		"country_code" : "UG",
		"county_code" : "",
		"fips_code" : "87",
		"iso2" : "216",
		"type" : null,
		"latitude" : 2.03017000,
		"longitude" : 33.64275330
	},
	{
		"name" : "Amudat District",
		"country_code" : "UG",
		"county_code" : "",
		"fips_code" : "87",
		"iso2" : "324",
		"type" : null,
		"latitude" : 1.79162240,
		"longitude" : 34.90655100
	},
	{
		"name" : "Masindi District",
		"country_code" : "UG",
		"county_code" : "",
		"fips_code" : "50",
		"iso2" : "409",
		"type" : null,
		"latitude" : 1.49203630,
		"longitude" : 31.71954590
	},
	{
		"name" : "Kiruhura District",
		"country_code" : "UG",
		"county_code" : "",
		"fips_code" : "50",
		"iso2" : "419",
		"type" : null,
		"latitude" : -0.19279980,
		"longitude" : 30.80394740
	},
	{
		"name" : "Masaka District",
		"country_code" : "UG",
		"county_code" : "",
		"fips_code" : "71",
		"iso2" : "105",
		"type" : null,
		"latitude" : -0.44636910,
		"longitude" : 31.90179540
	},
	{
		"name" : "Pakwach District",
		"country_code" : "UG",
		"county_code" : "",
		"fips_code" : "71",
		"iso2" : "332",
		"type" : null,
		"latitude" : 2.46071410,
		"longitude" : 31.49417380
	},
	{
		"name" : "Rubanda District",
		"country_code" : "UG",
		"county_code" : "",
		"fips_code" : "71",
		"iso2" : "429",
		"type" : null,
		"latitude" : -1.18611900,
		"longitude" : 29.84535760
	},
	{
		"name" : "Tororo District",
		"country_code" : "UG",
		"county_code" : "",
		"fips_code" : "76",
		"iso2" : "212",
		"type" : null,
		"latitude" : 0.68709940,
		"longitude" : 34.06414190
	},
	{
		"name" : "Kamwenge District",
		"country_code" : "UG",
		"county_code" : "",
		"fips_code" : "81",
		"iso2" : "413",
		"type" : null,
		"latitude" : 0.22579300,
		"longitude" : 30.48184460
	},
	{
		"name" : "Adjumani District",
		"country_code" : "UG",
		"county_code" : "",
		"fips_code" : "65",
		"iso2" : "301",
		"type" : null,
		"latitude" : 3.25485270,
		"longitude" : 31.71954590
	},
	{
		"name" : "Wakiso District",
		"country_code" : "UG",
		"county_code" : "",
		"fips_code" : "96",
		"iso2" : "113",
		"type" : null,
		"latitude" : 0.06301900,
		"longitude" : 32.44672380
	},
	{
		"name" : "Moyo District",
		"country_code" : "UG",
		"county_code" : "",
		"fips_code" : "72",
		"iso2" : "309",
		"type" : null,
		"latitude" : 3.56964640,
		"longitude" : 31.67393710
	},
	{
		"name" : "Mityana District",
		"country_code" : "UG",
		"county_code" : "",
		"fips_code" : "72",
		"iso2" : "115",
		"type" : null,
		"latitude" : 0.44548450,
		"longitude" : 32.08374450
	},
	{
		"name" : "Butaleja District",
		"country_code" : "UG",
		"county_code" : "",
		"fips_code" : "72",
		"iso2" : "221",
		"type" : null,
		"latitude" : 0.84749220,
		"longitude" : 33.84112880
	},
	{
		"name" : "Gomba District",
		"country_code" : "UG",
		"county_code" : "",
		"fips_code" : "72",
		"iso2" : "121",
		"type" : null,
		"latitude" : 0.22297910,
		"longitude" : 31.67393710
	},
	{
		"name" : "Jinja District",
		"country_code" : "UG",
		"county_code" : "",
		"fips_code" : "33",
		"iso2" : "204",
		"type" : null,
		"latitude" : 0.53437430,
		"longitude" : 33.30371430
	},
	{
		"name" : "Kayunga District",
		"country_code" : "UG",
		"county_code" : "",
		"fips_code" : "83",
		"iso2" : "112",
		"type" : null,
		"latitude" : 0.98601820,
		"longitude" : 32.85357550
	},
	{
		"name" : "Kween District",
		"country_code" : "UG",
		"county_code" : "",
		"fips_code" : "83",
		"iso2" : "228",
		"type" : null,
		"latitude" : 1.44387900,
		"longitude" : 34.59713200
	},
	{
		"name" : "Western Region",
		"country_code" : "UG",
		"county_code" : "",
		"fips_code" : "W",
		"iso2" : "W",
		"type" : null,
		"latitude" : 40.76672150,
		"longitude" : -111.88772030
	},
	{
		"name" : "Mubende District",
		"country_code" : "UG",
		"county_code" : "",
		"fips_code" : "56",
		"iso2" : "107",
		"type" : null,
		"latitude" : 0.57727580,
		"longitude" : 31.53700030
	},
	{
		"name" : "Eastern Region",
		"country_code" : "UG",
		"county_code" : "",
		"fips_code" : "E",
		"iso2" : "E",
		"type" : null,
		"latitude" : 6.23740360,
		"longitude" : -0.45023680
	},
	{
		"name" : "Kanungu District",
		"country_code" : "UG",
		"county_code" : "",
		"fips_code" : "82",
		"iso2" : "414",
		"type" : null,
		"latitude" : -0.81952530,
		"longitude" : 29.74260400
	},
	{
		"name" : "Omoro District",
		"country_code" : "UG",
		"county_code" : "",
		"fips_code" : "82",
		"iso2" : "331",
		"type" : null,
		"latitude" : 2.71522300,
		"longitude" : 32.49200880
	},
	{
		"name" : "Bukomansimbi District",
		"country_code" : "UG",
		"county_code" : "",
		"fips_code" : "82",
		"iso2" : "118",
		"type" : null,
		"latitude" : -0.14327520,
		"longitude" : 31.60548930
	},
	{
		"name" : "Lyantonde District",
		"country_code" : "UG",
		"county_code" : "",
		"fips_code" : "82",
		"iso2" : "114",
		"type" : null,
		"latitude" : -0.22406960,
		"longitude" : 31.21684660
	},
	{
		"name" : "Buikwe District",
		"country_code" : "UG",
		"county_code" : "",
		"fips_code" : "82",
		"iso2" : "117",
		"type" : null,
		"latitude" : 0.31440460,
		"longitude" : 32.98883190
	},
	{
		"name" : "Nwoya District",
		"country_code" : "UG",
		"county_code" : "",
		"fips_code" : "82",
		"iso2" : "328",
		"type" : null,
		"latitude" : 2.56244400,
		"longitude" : 31.90179540
	},
	{
		"name" : "Zombo District",
		"country_code" : "UG",
		"county_code" : "",
		"fips_code" : "82",
		"iso2" : "330",
		"type" : null,
		"latitude" : 2.55442930,
		"longitude" : 30.94173680
	},
	{
		"name" : "Buyende District",
		"country_code" : "UG",
		"county_code" : "",
		"fips_code" : "82",
		"iso2" : "226",
		"type" : null,
		"latitude" : 1.24136820,
		"longitude" : 33.12390490
	},
	{
		"name" : "Bunyangabu District",
		"country_code" : "UG",
		"county_code" : "",
		"fips_code" : "82",
		"iso2" : "430",
		"type" : null,
		"latitude" : 0.48709180,
		"longitude" : 30.20510960
	},
	{
		"name" : "Kampala District",
		"country_code" : "UG",
		"county_code" : "",
		"fips_code" : "37",
		"iso2" : "102",
		"type" : null,
		"latitude" : 0.34759640,
		"longitude" : 32.58251970
	},
	{
		"name" : "Isingiro District",
		"country_code" : "UG",
		"county_code" : "",
		"fips_code" : "37",
		"iso2" : "418",
		"type" : null,
		"latitude" : -0.84354300,
		"longitude" : 30.80394740
	},
	{
		"name" : "Butambala District",
		"country_code" : "UG",
		"county_code" : "",
		"fips_code" : "37",
		"iso2" : "119",
		"type" : null,
		"latitude" : 0.17425000,
		"longitude" : 32.10646680
	},
	{
		"name" : "Bukwo District",
		"country_code" : "UG",
		"county_code" : "",
		"fips_code" : "37",
		"iso2" : "220",
		"type" : null,
		"latitude" : 1.28186510,
		"longitude" : 34.72987650
	},
	{
		"name" : "Bushenyi District",
		"country_code" : "UG",
		"county_code" : "",
		"fips_code" : "29",
		"iso2" : "402",
		"type" : null,
		"latitude" : -0.48709180,
		"longitude" : 30.20510960
	},
	{
		"name" : "Bugiri District",
		"country_code" : "UG",
		"county_code" : "",
		"fips_code" : "66",
		"iso2" : "201",
		"type" : null,
		"latitude" : 0.53161270,
		"longitude" : 33.75177230
	},
	{
		"name" : "Butebo District",
		"country_code" : "UG",
		"county_code" : "",
		"fips_code" : "66",
		"iso2" : "233",
		"type" : null,
		"latitude" : 1.21411240,
		"longitude" : 33.90808960
	},
	{
		"name" : "Buliisa District",
		"country_code" : "UG",
		"county_code" : "",
		"fips_code" : "66",
		"iso2" : "416",
		"type" : null,
		"latitude" : 2.02996070,
		"longitude" : 31.53700030
	},
	{
		"name" : "Otuke District",
		"country_code" : "UG",
		"county_code" : "",
		"fips_code" : "66",
		"iso2" : "329",
		"type" : null,
		"latitude" : 2.52140590,
		"longitude" : 33.34861470
	},
	{
		"name" : "Buhweju District",
		"country_code" : "UG",
		"county_code" : "",
		"fips_code" : "66",
		"iso2" : "420",
		"type" : null,
		"latitude" : -0.29113590,
		"longitude" : 30.29741990
	},
	{
		"name" : "Agago District",
		"country_code" : "UG",
		"county_code" : "",
		"fips_code" : "66",
		"iso2" : "322",
		"type" : null,
		"latitude" : 2.92508200,
		"longitude" : 33.34861470
	},
	{
		"name" : "Nakapiripirit District",
		"country_code" : "UG",
		"county_code" : "",
		"fips_code" : "91",
		"iso2" : "311",
		"type" : null,
		"latitude" : 1.96061730,
		"longitude" : 34.59713200
	},
	{
		"name" : "Kalungu District",
		"country_code" : "UG",
		"county_code" : "",
		"fips_code" : "91",
		"iso2" : "122",
		"type" : null,
		"latitude" : -0.09528310,
		"longitude" : 31.76513620
	},
	{
		"name" : "Moroto District",
		"country_code" : "UG",
		"county_code" : "",
		"fips_code" : "88",
		"iso2" : "308",
		"type" : null,
		"latitude" : 2.61685450,
		"longitude" : 34.59713200
	},
	{
		"name" : "Central Region",
		"country_code" : "UG",
		"county_code" : "",
		"fips_code" : "C",
		"iso2" : "C",
		"type" : null,
		"latitude" : 44.29687500,
		"longitude" : -94.74017330
	},
	{
		"name" : "Oyam District",
		"country_code" : "UG",
		"county_code" : "",
		"fips_code" : "C",
		"iso2" : "321",
		"type" : null,
		"latitude" : 2.27762810,
		"longitude" : 32.44672380
	},
	{
		"name" : "Kaliro District",
		"country_code" : "UG",
		"county_code" : "",
		"fips_code" : "C",
		"iso2" : "222",
		"type" : null,
		"latitude" : 1.04311070,
		"longitude" : 33.48319060
	},
	{
		"name" : "Kakumiro District",
		"country_code" : "UG",
		"county_code" : "",
		"fips_code" : "C",
		"iso2" : "428",
		"type" : null,
		"latitude" : 0.78080350,
		"longitude" : 31.32413890
	},
	{
		"name" : "Namisindwa District",
		"country_code" : "UG",
		"county_code" : "",
		"fips_code" : "C",
		"iso2" : "234",
		"type" : null,
		"latitude" : 0.90710100,
		"longitude" : 34.35740370
	},
	{
		"name" : "Kole District",
		"country_code" : "UG",
		"county_code" : "",
		"fips_code" : "C",
		"iso2" : "325",
		"type" : null,
		"latitude" : 2.37010970,
		"longitude" : 32.76330360
	},
	{
		"name" : "Kyenjojo District",
		"country_code" : "UG",
		"county_code" : "",
		"fips_code" : "85",
		"iso2" : "415",
		"type" : null,
		"latitude" : 0.60929230,
		"longitude" : 30.64012310
	},
	{
		"name" : "Kagadi District",
		"country_code" : "UG",
		"county_code" : "",
		"fips_code" : "85",
		"iso2" : "427",
		"type" : null,
		"latitude" : 0.94007610,
		"longitude" : 30.81256380
	},
	{
		"name" : "Ntungamo District",
		"country_code" : "UG",
		"county_code" : "",
		"fips_code" : "59",
		"iso2" : "411",
		"type" : null,
		"latitude" : -0.98073410,
		"longitude" : 30.25127280
	},
	{
		"name" : "Kalangala District",
		"country_code" : "UG",
		"county_code" : "",
		"fips_code" : "36",
		"iso2" : "101",
		"type" : null,
		"latitude" : -0.63505780,
		"longitude" : 32.53727410
	},
	{
		"name" : "Nakasongola District",
		"country_code" : "UG",
		"county_code" : "",
		"fips_code" : "73",
		"iso2" : "109",
		"type" : null,
		"latitude" : 1.34897210,
		"longitude" : 32.44672380
	},
	{
		"name" : "Sheema District",
		"country_code" : "UG",
		"county_code" : "",
		"fips_code" : "73",
		"iso2" : "426",
		"type" : null,
		"latitude" : -0.55152980,
		"longitude" : 30.38966510
	},
	{
		"name" : "Pader District",
		"country_code" : "UG",
		"county_code" : "",
		"fips_code" : "92",
		"iso2" : "312",
		"type" : null,
		"latitude" : 2.94306820,
		"longitude" : 32.80844960
	},
	{
		"name" : "Kisoro District",
		"country_code" : "UG",
		"county_code" : "",
		"fips_code" : "43",
		"iso2" : "408",
		"type" : null,
		"latitude" : -1.22094300,
		"longitude" : 29.64991620
	},
	{
		"name" : "Mukono District",
		"country_code" : "UG",
		"county_code" : "",
		"fips_code" : "90",
		"iso2" : "108",
		"type" : null,
		"latitude" : 0.28354760,
		"longitude" : 32.76330360
	},
	{
		"name" : "Lamwo District",
		"country_code" : "UG",
		"county_code" : "",
		"fips_code" : "90",
		"iso2" : "326",
		"type" : null,
		"latitude" : 3.57075680,
		"longitude" : 32.53727410
	},
	{
		"name" : "Pallisa District",
		"country_code" : "UG",
		"county_code" : "",
		"fips_code" : "60",
		"iso2" : "210",
		"type" : null,
		"latitude" : 1.23242060,
		"longitude" : 33.75177230
	},
	{
		"name" : "Gulu District",
		"country_code" : "UG",
		"county_code" : "",
		"fips_code" : "30",
		"iso2" : "304",
		"type" : null,
		"latitude" : 2.81857760,
		"longitude" : 32.44672380
	},
	{
		"name" : "Buvuma District",
		"country_code" : "UG",
		"county_code" : "",
		"fips_code" : "30",
		"iso2" : "120",
		"type" : null,
		"latitude" : -0.37649120,
		"longitude" : 33.25879300
	},
	{
		"name" : "Mbarara District",
		"country_code" : "UG",
		"county_code" : "",
		"fips_code" : "52",
		"iso2" : "410",
		"type" : null,
		"latitude" : -0.60715960,
		"longitude" : 30.65450220
	},
	{
		"name" : "Amolatar District",
		"country_code" : "UG",
		"county_code" : "",
		"fips_code" : "52",
		"iso2" : "315",
		"type" : null,
		"latitude" : 1.60544020,
		"longitude" : 32.80844960
	},
	{
		"name" : "Lwengo District",
		"country_code" : "UG",
		"county_code" : "",
		"fips_code" : "52",
		"iso2" : "124",
		"type" : null,
		"latitude" : -0.41652880,
		"longitude" : 31.39989950
	},
	{
		"name" : "Mayuge District",
		"country_code" : "UG",
		"county_code" : "",
		"fips_code" : "86",
		"iso2" : "214",
		"type" : null,
		"latitude" : -0.21829820,
		"longitude" : 33.57280270
	},
	{
		"name" : "Bundibugyo District",
		"country_code" : "UG",
		"county_code" : "",
		"fips_code" : "28",
		"iso2" : "401",
		"type" : null,
		"latitude" : 0.68517630,
		"longitude" : 30.02029640
	},
	{
		"name" : "Katakwi District",
		"country_code" : "UG",
		"county_code" : "",
		"fips_code" : "69",
		"iso2" : "207",
		"type" : null,
		"latitude" : 1.97310300,
		"longitude" : 34.06414190
	},
	{
		"name" : "Maracha District",
		"country_code" : "UG",
		"county_code" : "",
		"fips_code" : "69",
		"iso2" : "320",
		"type" : null,
		"latitude" : 3.28731270,
		"longitude" : 30.94030230
	},
	{
		"name" : "Ntoroko District",
		"country_code" : "UG",
		"county_code" : "",
		"fips_code" : "69",
		"iso2" : "424",
		"type" : null,
		"latitude" : 1.07881780,
		"longitude" : 30.38966510
	},
	{
		"name" : "Nakaseke District",
		"country_code" : "UG",
		"county_code" : "",
		"fips_code" : "69",
		"iso2" : "116",
		"type" : null,
		"latitude" : 1.22308480,
		"longitude" : 32.08374450
	},
	{
		"name" : "Ngora District",
		"country_code" : "UG",
		"county_code" : "",
		"fips_code" : "69",
		"iso2" : "231",
		"type" : null,
		"latitude" : 1.49081150,
		"longitude" : 33.75177230
	},
	{
		"name" : "Kumi District",
		"country_code" : "UG",
		"county_code" : "",
		"fips_code" : "46",
		"iso2" : "208",
		"type" : null,
		"latitude" : 1.48769990,
		"longitude" : 33.93039910
	},
	{
		"name" : "Kabale District",
		"country_code" : "UG",
		"county_code" : "",
		"fips_code" : "34",
		"iso2" : "404",
		"type" : null,
		"latitude" : -1.24930840,
		"longitude" : 30.06652360
	},
	{
		"name" : "Sembabule District",
		"country_code" : "UG",
		"county_code" : "",
		"fips_code" : "74",
		"iso2" : "111",
		"type" : null,
		"latitude" : 0.06377150,
		"longitude" : 31.35416310
	},
	{
		"name" : "Bulambuli District",
		"country_code" : "UG",
		"county_code" : "",
		"fips_code" : "74",
		"iso2" : "225",
		"type" : null,
		"latitude" : 1.47988460,
		"longitude" : 34.37544140
	},
	{
		"name" : "Sironko District",
		"country_code" : "UG",
		"county_code" : "",
		"fips_code" : "94",
		"iso2" : "215",
		"type" : null,
		"latitude" : 1.23022740,
		"longitude" : 34.24910640
	},
	{
		"name" : "Napak District",
		"country_code" : "UG",
		"county_code" : "",
		"fips_code" : "94",
		"iso2" : "327",
		"type" : null,
		"latitude" : 2.36299450,
		"longitude" : 34.24215970
	},
	{
		"name" : "Busia District",
		"country_code" : "UG",
		"county_code" : "",
		"fips_code" : "67",
		"iso2" : "202",
		"type" : null,
		"latitude" : 0.40447310,
		"longitude" : 34.01958270
	},
	{
		"name" : "Kapchorwa District",
		"country_code" : "UG",
		"county_code" : "",
		"fips_code" : "39",
		"iso2" : "206",
		"type" : null,
		"latitude" : 1.33502050,
		"longitude" : 34.39763560
	},
	{
		"name" : "Luwero District",
		"country_code" : "UG",
		"county_code" : "",
		"fips_code" : "70",
		"iso2" : "104",
		"type" : null,
		"latitude" : 0.82711180,
		"longitude" : 32.62774550
	},
	{
		"name" : "Kaabong District",
		"country_code" : "UG",
		"county_code" : "",
		"fips_code" : "70",
		"iso2" : "318",
		"type" : null,
		"latitude" : 3.51262150,
		"longitude" : 33.97500180
	},
	{
		"name" : "Mitooma District",
		"country_code" : "UG",
		"county_code" : "",
		"fips_code" : "70",
		"iso2" : "423",
		"type" : null,
		"latitude" : -0.61932760,
		"longitude" : 30.02029640
	},
	{
		"name" : "Kibaale District",
		"country_code" : "UG",
		"county_code" : "",
		"fips_code" : "41",
		"iso2" : "407",
		"type" : null,
		"latitude" : 0.90668020,
		"longitude" : 31.07937050
	},
	{
		"name" : "Kyegegwa District",
		"country_code" : "UG",
		"county_code" : "",
		"fips_code" : "41",
		"iso2" : "422",
		"type" : null,
		"latitude" : 0.48181930,
		"longitude" : 31.05500930
	},
	{
		"name" : "Manafwa District",
		"country_code" : "UG",
		"county_code" : "",
		"fips_code" : "41",
		"iso2" : "223",
		"type" : null,
		"latitude" : 0.90635990,
		"longitude" : 34.28660910
	},
	{
		"name" : "Rakai District",
		"country_code" : "UG",
		"county_code" : "",
		"fips_code" : "61",
		"iso2" : "110",
		"type" : null,
		"latitude" : -0.70691350,
		"longitude" : 31.53700030
	},
	{
		"name" : "Kasese District",
		"country_code" : "UG",
		"county_code" : "",
		"fips_code" : "40",
		"iso2" : "406",
		"type" : null,
		"latitude" : 0.06462850,
		"longitude" : 30.06652360
	},
	{
		"name" : "Budaka District",
		"country_code" : "UG",
		"county_code" : "",
		"fips_code" : "40",
		"iso2" : "217",
		"type" : null,
		"latitude" : 1.10162770,
		"longitude" : 33.93039910
	},
	{
		"name" : "Rubirizi District",
		"country_code" : "UG",
		"county_code" : "",
		"fips_code" : "40",
		"iso2" : "425",
		"type" : null,
		"latitude" : -0.26424100,
		"longitude" : 30.10840330
	},
	{
		"name" : "Kotido District",
		"country_code" : "UG",
		"county_code" : "",
		"fips_code" : "45",
		"iso2" : "306",
		"type" : null,
		"latitude" : 3.04156790,
		"longitude" : 33.88577470
	},
	{
		"name" : "Soroti District",
		"country_code" : "UG",
		"county_code" : "",
		"fips_code" : "95",
		"iso2" : "211",
		"type" : null,
		"latitude" : 1.72291170,
		"longitude" : 33.52800720
	},
	{
		"name" : "Luuka District",
		"country_code" : "UG",
		"county_code" : "",
		"fips_code" : "95",
		"iso2" : "229",
		"type" : null,
		"latitude" : 0.72505990,
		"longitude" : 33.30371430
	},
	{
		"name" : "Nebbi District",
		"country_code" : "UG",
		"county_code" : "",
		"fips_code" : "58",
		"iso2" : "310",
		"type" : null,
		"latitude" : 2.44093920,
		"longitude" : 31.35416310
	},
	{
		"name" : "Arua District",
		"country_code" : "UG",
		"county_code" : "",
		"fips_code" : "77",
		"iso2" : "303",
		"type" : null,
		"latitude" : 2.99598460,
		"longitude" : 31.17103890
	},
	{
		"name" : "Kyotera District",
		"country_code" : "UG",
		"county_code" : "",
		"fips_code" : "77",
		"iso2" : "125",
		"type" : null,
		"latitude" : -0.63589880,
		"longitude" : 31.54556370
	},
	{
		"name" : "Schellenberg",
		"country_code" : "LI",
		"county_code" : "",
		"fips_code" : "08",
		"iso2" : "08",
		"type" : null,
		"latitude" : 47.23096600,
		"longitude" : 9.54678430
	},
	{
		"name" : "Schaan",
		"country_code" : "LI",
		"county_code" : "",
		"fips_code" : "07",
		"iso2" : "07",
		"type" : null,
		"latitude" : 47.12043400,
		"longitude" : 9.59416020
	},
	{
		"name" : "Eschen",
		"country_code" : "LI",
		"county_code" : "",
		"fips_code" : "02",
		"iso2" : "02",
		"type" : null,
		"latitude" : 40.76695740,
		"longitude" : -73.95228210
	},
	{
		"name" : "Vaduz",
		"country_code" : "LI",
		"county_code" : "",
		"fips_code" : "11",
		"iso2" : "11",
		"type" : null,
		"latitude" : 47.14103030,
		"longitude" : 9.52092770
	},
	{
		"name" : "Ruggell",
		"country_code" : "LI",
		"county_code" : "",
		"fips_code" : "06",
		"iso2" : "06",
		"type" : null,
		"latitude" : 47.25292220,
		"longitude" : 9.54021270
	},
	{
		"name" : "Planken",
		"country_code" : "LI",
		"county_code" : "",
		"fips_code" : "05",
		"iso2" : "05",
		"type" : null,
		"latitude" : 40.66505760,
		"longitude" : -73.50479800
	},
	{
		"name" : "Mauren",
		"country_code" : "LI",
		"county_code" : "",
		"fips_code" : "04",
		"iso2" : "04",
		"type" : null,
		"latitude" : 47.21892850,
		"longitude" : 9.54173500
	},
	{
		"name" : "Triesenberg",
		"country_code" : "LI",
		"county_code" : "",
		"fips_code" : "10",
		"iso2" : "10",
		"type" : null,
		"latitude" : 47.12245110,
		"longitude" : 9.57019850
	},
	{
		"name" : "Gamprin",
		"country_code" : "LI",
		"county_code" : "",
		"fips_code" : "03",
		"iso2" : "03",
		"type" : null,
		"latitude" : 47.21324900,
		"longitude" : 9.50251950
	},
	{
		"name" : "Balzers",
		"country_code" : "LI",
		"county_code" : "",
		"fips_code" : "01",
		"iso2" : "01",
		"type" : null,
		"latitude" : 42.05283570,
		"longitude" : -88.03668480
	},
	{
		"name" : "Triesen",
		"country_code" : "LI",
		"county_code" : "",
		"fips_code" : "09",
		"iso2" : "09",
		"type" : null,
		"latitude" : 47.10979880,
		"longitude" : 9.52482960
	},
	{
		"name" : "Brčko District",
		"country_code" : "BA",
		"county_code" : "",
		"fips_code" : "BRC",
		"iso2" : "BRC",
		"type" : null,
		"latitude" : 44.84059440,
		"longitude" : 18.74215300
	},
	{
		"name" : "Tuzla Canton",
		"country_code" : "BA",
		"county_code" : "",
		"fips_code" : "BRC",
		"iso2" : "03",
		"type" : null,
		"latitude" : 44.53434630,
		"longitude" : 18.69727970
	},
	{
		"name" : "Central Bosnia Canton",
		"country_code" : "BA",
		"county_code" : "",
		"fips_code" : "BRC",
		"iso2" : "06",
		"type" : null,
		"latitude" : 44.13818560,
		"longitude" : 17.68667140
	},
	{
		"name" : "Herzegovina-Neretva Canton",
		"country_code" : "BA",
		"county_code" : "",
		"fips_code" : "BRC",
		"iso2" : "07",
		"type" : null,
		"latitude" : 43.52651590,
		"longitude" : 17.76362100
	},
	{
		"name" : "Posavina Canton",
		"country_code" : "BA",
		"county_code" : "",
		"fips_code" : "BRC",
		"iso2" : "02",
		"type" : null,
		"latitude" : 45.07520940,
		"longitude" : 18.37763040
	},
	{
		"name" : "Una-Sana Canton",
		"country_code" : "BA",
		"county_code" : "",
		"fips_code" : "BRC",
		"iso2" : "01",
		"type" : null,
		"latitude" : 44.65031160,
		"longitude" : 16.31716290
	},
	{
		"name" : "Sarajevo Canton",
		"country_code" : "BA",
		"county_code" : "",
		"fips_code" : "BRC",
		"iso2" : "09",
		"type" : null,
		"latitude" : 43.85125640,
		"longitude" : 18.29534420
	},
	{
		"name" : "Federation of Bosnia and Herzegovina",
		"country_code" : "BA",
		"county_code" : "",
		"fips_code" : "01",
		"iso2" : "BIH",
		"type" : null,
		"latitude" : 43.88748970,
		"longitude" : 17.84279300
	},
	{
		"name" : "Zenica-Doboj Canton",
		"country_code" : "BA",
		"county_code" : "",
		"fips_code" : "01",
		"iso2" : "04",
		"type" : null,
		"latitude" : 44.21271090,
		"longitude" : 18.16046250
	},
	{
		"name" : "West Herzegovina Canton",
		"country_code" : "BA",
		"county_code" : "",
		"fips_code" : "01",
		"iso2" : "08",
		"type" : null,
		"latitude" : 43.43692440,
		"longitude" : 17.38488310
	},
	{
		"name" : "Republika Srpska",
		"country_code" : "BA",
		"county_code" : "",
		"fips_code" : "02",
		"iso2" : "SRP",
		"type" : null,
		"latitude" : 44.72801860,
		"longitude" : 17.31481360
	},
	{
		"name" : "Canton 10",
		"country_code" : "BA",
		"county_code" : "",
		"fips_code" : "02",
		"iso2" : "10",
		"type" : null,
		"latitude" : 43.95341550,
		"longitude" : 16.94251870
	},
	{
		"name" : "Bosnian Podrinje Canton",
		"country_code" : "BA",
		"county_code" : "",
		"fips_code" : "02",
		"iso2" : "05",
		"type" : null,
		"latitude" : 43.68749000,
		"longitude" : 18.82443940
	},
	{
		"name" : "Dakar",
		"country_code" : "SN",
		"county_code" : "",
		"fips_code" : "01",
		"iso2" : "DK",
		"type" : null,
		"latitude" : 14.71667700,
		"longitude" : -17.46768610
	},
	{
		"name" : "Kolda",
		"country_code" : "SN",
		"county_code" : "",
		"fips_code" : "11",
		"iso2" : "KD",
		"type" : null,
		"latitude" : 12.91074950,
		"longitude" : -14.95056710
	},
	{
		"name" : "Kaffrine",
		"country_code" : "SN",
		"county_code" : "",
		"fips_code" : "16",
		"iso2" : "KA",
		"type" : null,
		"latitude" : 14.10520200,
		"longitude" : -15.54157550
	},
	{
		"name" : "Matam",
		"country_code" : "SN",
		"county_code" : "",
		"fips_code" : "15",
		"iso2" : "MT",
		"type" : null,
		"latitude" : 15.66002250,
		"longitude" : -13.25769060
	},
	{
		"name" : "Saint-Louis",
		"country_code" : "SN",
		"county_code" : "",
		"fips_code" : "14",
		"iso2" : "SL",
		"type" : null,
		"latitude" : 38.62700250,
		"longitude" : -90.19940420
	},
	{
		"name" : "Ziguinchor",
		"country_code" : "SN",
		"county_code" : "",
		"fips_code" : "12",
		"iso2" : "ZG",
		"type" : null,
		"latitude" : 12.56414790,
		"longitude" : -16.26398250
	},
	{
		"name" : "Fatick",
		"country_code" : "SN",
		"county_code" : "",
		"fips_code" : "09",
		"iso2" : "FK",
		"type" : null,
		"latitude" : 14.33901670,
		"longitude" : -16.41114250
	},
	{
		"name" : "Diourbel Region",
		"country_code" : "SN",
		"county_code" : "",
		"fips_code" : "03",
		"iso2" : "DB",
		"type" : null,
		"latitude" : 14.72830850,
		"longitude" : -16.25221430
	},
	{
		"name" : "Kédougou",
		"country_code" : "SN",
		"county_code" : "",
		"fips_code" : "17",
		"iso2" : "KE",
		"type" : null,
		"latitude" : 12.56046070,
		"longitude" : -12.17470770
	},
	{
		"name" : "Sédhiou",
		"country_code" : "SN",
		"county_code" : "",
		"fips_code" : "18",
		"iso2" : "SE",
		"type" : null,
		"latitude" : 12.70460400,
		"longitude" : -15.55623040
	},
	{
		"name" : "Kaolack",
		"country_code" : "SN",
		"county_code" : "",
		"fips_code" : "10",
		"iso2" : "KL",
		"type" : null,
		"latitude" : 14.16520830,
		"longitude" : -16.07577490
	},
	{
		"name" : "Thiès Region",
		"country_code" : "SN",
		"county_code" : "",
		"fips_code" : "07",
		"iso2" : "TH",
		"type" : null,
		"latitude" : 14.79100520,
		"longitude" : -16.93586040
	},
	{
		"name" : "Louga",
		"country_code" : "SN",
		"county_code" : "",
		"fips_code" : "13",
		"iso2" : "LG",
		"type" : null,
		"latitude" : 15.61417680,
		"longitude" : -16.22868000
	},
	{
		"name" : "Tambacounda Region",
		"country_code" : "SN",
		"county_code" : "",
		"fips_code" : "05",
		"iso2" : "TC",
		"type" : null,
		"latitude" : 13.56190110,
		"longitude" : -13.17403480
	},
	{
		"name" : "Encamp",
		"country_code" : "AD",
		"county_code" : "",
		"fips_code" : "03",
		"iso2" : "03",
		"type" : null,
		"latitude" : 42.53597640,
		"longitude" : 1.58367730
	},
	{
		"name" : "Andorra la Vella",
		"country_code" : "AD",
		"county_code" : "",
		"fips_code" : "07",
		"iso2" : "07",
		"type" : null,
		"latitude" : 42.50631740,
		"longitude" : 1.52183550
	},
	{
		"name" : "Canillo",
		"country_code" : "AD",
		"county_code" : "",
		"fips_code" : "02",
		"iso2" : "02",
		"type" : null,
		"latitude" : 42.59782490,
		"longitude" : 1.65663770
	},
	{
		"name" : "Sant Julià de Lòria",
		"country_code" : "AD",
		"county_code" : "",
		"fips_code" : "06",
		"iso2" : "06",
		"type" : null,
		"latitude" : 42.45296310,
		"longitude" : 1.49182350
	},
	{
		"name" : "Ordino",
		"country_code" : "AD",
		"county_code" : "",
		"fips_code" : "05",
		"iso2" : "05",
		"type" : null,
		"latitude" : 42.59944330,
		"longitude" : 1.54023270
	},
	{
		"name" : "Escaldes-Engordany",
		"country_code" : "AD",
		"county_code" : "",
		"fips_code" : "08",
		"iso2" : "08",
		"type" : null,
		"latitude" : 42.49093790,
		"longitude" : 1.58869660
	},
	{
		"name" : "La Massana",
		"country_code" : "AD",
		"county_code" : "",
		"fips_code" : "04",
		"iso2" : "04",
		"type" : null,
		"latitude" : 42.54562500,
		"longitude" : 1.51473920
	},
	{
		"name" : "Mont Buxton",
		"country_code" : "SC",
		"county_code" : "",
		"fips_code" : "17",
		"iso2" : "17",
		"type" : null,
		"latitude" : -4.61666670,
		"longitude" : 55.44577680
	},
	{
		"name" : "La Digue",
		"country_code" : "SC",
		"county_code" : "",
		"fips_code" : "25",
		"iso2" : "15",
		"type" : null,
		"latitude" : 49.76669220,
		"longitude" : -97.15466290
	},
	{
		"name" : "Saint Louis",
		"country_code" : "SC",
		"county_code" : "",
		"fips_code" : "22",
		"iso2" : "22",
		"type" : null,
		"latitude" : 38.62700250,
		"longitude" : -90.19940420
	},
	{
		"name" : "Baie Lazare",
		"country_code" : "SC",
		"county_code" : "",
		"fips_code" : "06",
		"iso2" : "06",
		"type" : null,
		"latitude" : -4.74825250,
		"longitude" : 55.48593630
	},
	{
		"name" : "Mont Fleuri",
		"country_code" : "SC",
		"county_code" : "",
		"fips_code" : "18",
		"iso2" : "18",
		"type" : null,
		"latitude" : -4.63565430,
		"longitude" : 55.45546880
	},
	{
		"name" : "Les Mamelles",
		"country_code" : "SC",
		"county_code" : "",
		"fips_code" : "29",
		"iso2" : "24",
		"type" : null,
		"latitude" : 38.82505050,
		"longitude" : -90.48345170
	},
	{
		"name" : "Grand'Anse Mahé",
		"country_code" : "SC",
		"county_code" : "",
		"fips_code" : "24",
		"iso2" : "13",
		"type" : null,
		"latitude" : -4.67739200,
		"longitude" : 55.46377700
	},
	{
		"name" : "Roche Caiman",
		"country_code" : "SC",
		"county_code" : "",
		"fips_code" : "30",
		"iso2" : "25",
		"type" : null,
		"latitude" : -4.63960280,
		"longitude" : 55.46793150
	},
	{
		"name" : "Anse Royale",
		"country_code" : "SC",
		"county_code" : "",
		"fips_code" : "05",
		"iso2" : "05",
		"type" : null,
		"latitude" : -4.74079880,
		"longitude" : 55.50810120
	},
	{
		"name" : "Glacis",
		"country_code" : "SC",
		"county_code" : "",
		"fips_code" : "12",
		"iso2" : "12",
		"type" : null,
		"latitude" : 47.11573030,
		"longitude" : -70.30281830
	},
	{
		"name" : "Grand'Anse Praslin",
		"country_code" : "SC",
		"county_code" : "",
		"fips_code" : "14",
		"iso2" : "14",
		"type" : null,
		"latitude" : -4.31762190,
		"longitude" : 55.70783630
	},
	{
		"name" : "Bel Ombre",
		"country_code" : "SC",
		"county_code" : "",
		"fips_code" : "10",
		"iso2" : "10",
		"type" : null,
		"latitude" : -20.50100950,
		"longitude" : 57.42596240
	},
	{
		"name" : "Anse-aux-Pins",
		"country_code" : "SC",
		"county_code" : "",
		"fips_code" : "01",
		"iso2" : "01",
		"type" : null,
		"latitude" : -4.69004430,
		"longitude" : 55.51502890
	},
	{
		"name" : "Port Glaud",
		"country_code" : "SC",
		"county_code" : "",
		"fips_code" : "27",
		"iso2" : "21",
		"type" : null,
		"latitude" : -4.64885230,
		"longitude" : 55.41947530
	},
	{
		"name" : "Au Cap",
		"country_code" : "SC",
		"county_code" : "",
		"fips_code" : "28",
		"iso2" : "04",
		"type" : null,
		"latitude" : -4.70597230,
		"longitude" : 55.50810120
	},
	{
		"name" : "Takamaka",
		"country_code" : "SC",
		"county_code" : "",
		"fips_code" : "23",
		"iso2" : "23",
		"type" : null,
		"latitude" : 37.96459170,
		"longitude" : -1.22177270
	},
	{
		"name" : "Pointe La Rue",
		"country_code" : "SC",
		"county_code" : "",
		"fips_code" : "20",
		"iso2" : "20",
		"type" : null,
		"latitude" : -4.68048900,
		"longitude" : 55.51918570
	},
	{
		"name" : "Plaisance",
		"country_code" : "SC",
		"county_code" : "",
		"fips_code" : "19",
		"iso2" : "19",
		"type" : null,
		"latitude" : 45.60709500,
		"longitude" : -75.11427450
	},
	{
		"name" : "Beau Vallon",
		"country_code" : "SC",
		"county_code" : "",
		"fips_code" : "08",
		"iso2" : "08",
		"type" : null,
		"latitude" : -4.62109670,
		"longitude" : 55.42778020
	},
	{
		"name" : "Anse Boileau",
		"country_code" : "SC",
		"county_code" : "",
		"fips_code" : "02",
		"iso2" : "02",
		"type" : null,
		"latitude" : -4.70472680,
		"longitude" : 55.48593630
	},
	{
		"name" : "Baie Sainte Anne",
		"country_code" : "SC",
		"county_code" : "",
		"fips_code" : "07",
		"iso2" : "07",
		"type" : null,
		"latitude" : 47.05259000,
		"longitude" : -64.95245790
	},
	{
		"name" : "Bel Air",
		"country_code" : "SC",
		"county_code" : "",
		"fips_code" : "09",
		"iso2" : "09",
		"type" : null,
		"latitude" : 34.10024550,
		"longitude" : -118.45946300
	},
	{
		"name" : "La Rivière Anglaise",
		"country_code" : "SC",
		"county_code" : "",
		"fips_code" : "26",
		"iso2" : "16",
		"type" : null,
		"latitude" : -4.61061500,
		"longitude" : 55.45408410
	},
	{
		"name" : "Cascade",
		"country_code" : "SC",
		"county_code" : "",
		"fips_code" : "11",
		"iso2" : "11",
		"type" : null,
		"latitude" : 44.51628210,
		"longitude" : -116.04179830
	},
	{
		"name" : "Shaki",
		"country_code" : "AZ",
		"county_code" : "",
		"fips_code" : "48",
		"iso2" : "SA",
		"type" : null,
		"latitude" : 41.19747530,
		"longitude" : 47.15712410
	},
	{
		"name" : "Tartar District",
		"country_code" : "AZ",
		"county_code" : "",
		"fips_code" : "57",
		"iso2" : "TAR",
		"type" : null,
		"latitude" : 40.34438750,
		"longitude" : 46.93765190
	},
	{
		"name" : "Shirvan",
		"country_code" : "AZ",
		"county_code" : "",
		"fips_code" : "07",
		"iso2" : "SR",
		"type" : null,
		"latitude" : 39.94697070,
		"longitude" : 48.92239190
	},
	{
		"name" : "Qazakh District",
		"country_code" : "AZ",
		"county_code" : "",
		"fips_code" : "40",
		"iso2" : "QAZ",
		"type" : null,
		"latitude" : 41.09710740,
		"longitude" : 45.35163310
	},